SALE TYPE,SOLD DATE,PROPERTY TYPE,ADDRESS,CITY,STATE,ZIP,PRICE,BEDS,BATHS,LOCATION,SQUARE FEET,LOT SIZE,YEAR BUILT,DAYS ON MARKET,$/SQUARE FEET,HOA/MONTH,STATUS,NEXT OPEN HOUSE START TIME,NEXT OPEN HOUSE END TIME,URL (SEE http://www.redfin.com/buy-a-home/comparative-market-analysis FOR INFO ON PRICING),SOURCE,MLS#,FAVORITE,INTERESTED,LATITUDE,LONGITUDE
PAST SALE,June-24-2016,Condo/Co-op,40 Cedarcliff Cir Unit GIII-25,Asheville,NC,28803,235000,2,2.0,Asheville,1543,5662,1989,657,152,309,Sold,,,http://www.redfin.com/NC/Asheville/40-Cedarcliff-Cir-28803/unit-GIII-25/home/145047415,CMLS,3182756,N,Y,35.5520995,-82.4820232
PAST SALE,September-6-2016,Vacant Land,999 Merrills Cove Rd,Asheville,NC,28803,142000,,,Asheville,,271814,,583,,,Sold,,,http://www.redfin.com/NC/Asheville/999-Merrills-Cove-Rd-28803/home/145049879,CMLS,3152283,N,Y,35.5269261,-82.4843275
PAST SALE,July-28-2016,Single Family Residential,17 Bee Ridge Rd,Asheville,NC,28803,290000,2,2.0,Asheville,2575,31363,1957,623,113,,Sold,,,http://www.redfin.com/NC/Asheville/17-Bee-Ridge-Rd-28803/home/102026772,CMLS,3160083,N,Y,35.5517514,-82.4887066
PAST SALE,September-19-2016,Condo/Co-op,33 Cedarcliff,Asheville,NC,28803,290000,4,3.0,Laurel Creek,2619,8276,1987,570,111,309,Sold,,,http://www.redfin.com/NC/Asheville/33-Cedarcliff-Cir-28803/home/102027643,NCMMLS,NCM593000,N,Y,35.5528436,-82.4816848
PAST SALE,July-22-2015,Single Family Residential,91 Oak Ter,Arden,NC,28704,160000,3,2.0,Arden,1660,10018,1964,995,96,,Sold,,,http://www.redfin.com/NC/Arden/91-Oak-Ter-28704/home/102033266,CMLS,NCM564367,N,Y,35.4775547,-82.504778
PAST SALE,August-13-2015,Single Family Residential,1449 Cane Creek Rd,Fletcher,NC,28732,190000,2,2.0,Fletcher,1139,135036,1956,973,167,,Sold,,,http://www.redfin.com/NC/Fletcher/1449-Cane-Creek-Rd-28732/home/102037553,CMLS,NCM557970,N,Y,35.4808115,-82.4431366
PAST SALE,June-23-2015,Vacant Land,58 Castanea Mountain Dr,Asheville,NC,28803,130000,0,,Chestnut Mountain,,,,1024,,,Sold,,,http://www.redfin.com/NC/Asheville/58-Castanea-Mountain-Dr-28803/home/102058802,NCMMLS,NCM576357,N,Y,35.5415776,-82.4597163
PAST SALE,June-23-2016,Vacant Land,TBD Webb Creek Rd,Fairview,NC,28730,65500,0,,Fairview,,65340,,658,,,Sold,,,http://www.redfin.com/NC/Fairview/TBD-Webb-Creek-Rd-28730/home/102051698,NCMMLS,NCM581079,N,Y,35.524279,-82.450485
PAST SALE,September-22-2016,Vacant Land,Tract C Sedgewood,Fairview,NC,28730,84000,0,,Fairview,,97574,,567,,4,Sold,,,http://www.redfin.com/NC/Fairview/Tract-C-Sedgewood-Ct-28730/home/108464529,NCMMLS,3201402,N,Y,35.521253,-82.441198
PAST SALE,July-1-2016,Single Family Residential,125 Winding,Fairview,NC,28730,535000,4,3.0,Winding Ridge,4236,155944,1998,650,126,,Sold,,,http://www.redfin.com/NC/Fairview/125-Winding-Way-28730/home/102027955,NCMMLS,NCM578893,N,Y,35.5236444,-82.43027
PAST SALE,October-23-2015,Vacant Land,Lot 18 Bridgewater,Fletcher,NC,28732,110000,0,,Bridgewater,,,,902,,690,Sold,,,http://www.redfin.com/NC/Fletcher/18-Bridgewater-Dr-28732/home/102058428,NCMMLS,NCM594900,N,Y,35.503087,-82.4295689
PAST SALE,September-12-2014,Single Family Residential,61 Indian Trl,Asheville,NC,28803,540000,4,4.0,Indian Falls Estates,3319,,2004,1308,163,180,Sold,,,http://www.redfin.com/NC/Asheville/61-Indian-Trl-28803/home/102046386,NCMMLS,NCM556490,N,Y,35.528676,-82.4786813
PAST SALE,April-21-2016,Vacant Land,375 A),Fairview,NC,28730,40000,0,,Fairview,,,,721,,,Sold,,,http://www.redfin.com/NC/Fairview/375-Fairview-Hills-Dr-28730/home/102326876,NCMMLS,NCM576715,N,Y,35.5322308,-82.4366668
PAST SALE,November-29-2016,Single Family Residential,155 Cedar Mtn,Asheville,NC,28803,312000,4,4.0,Asheville,2271,34848,2002,499,137,,Sold,,,http://www.redfin.com/NC/Asheville/155-Cedar-Mountain-Rd-28803/home/109274880,NCMMLS,3222125,N,Y,35.541751,-82.468622
PAST SALE,November-2-2015,Single Family Residential,103 Windsong Drive Ext,Fairview,NC,28730,570000,4,3.5,Fairview,3227,158994,1995,892,177,400,Sold,,,http://www.redfin.com/NC/FAIRVIEW/103-WINDSONG-DR-EXT-28730/home/111211496,CMLS,NCM585913,N,Y,35.534171,-82.437698
PAST SALE,August-5-2015,Single Family Residential,9 Meadow Brook Dr,Fletcher,NC,28732,363995,4,3.0,Fletcher,2872,29185,1996,981,127,100,Sold,,,http://www.redfin.com/NC/Fletcher/9-Meadowbrook-Dr-28732/home/102048663,CMLS,NCM454058,N,Y,35.512681,-82.4378457
PAST SALE,March-18-2014,Single Family Residential,27 Graylyn Dr,Fairview,NC,28730,417500,3,4.0,Graylyn Estates,3853,,2004,1486,108,25,Sold,,,http://www.redfin.com/NC/Fairview/27-Graylyn-Dr-28730/home/102035599,NCMMLS,NCM553103,N,Y,35.533409,-82.4374647
PAST SALE,October-14-2015,Single Family Residential,53 Fox Rdg,Fletcher,NC,28732,387500,3,3.0,Fox Ridge,3112,,1995,911,125,75,Sold,,,http://www.redfin.com/NC/Fletcher/53-Fox-Ridge-Dr-28732/home/102050521,NCMMLS,NCM583181,N,Y,35.512596,-82.44725
PAST SALE,April-28-2016,Single Family Residential,6 Muirfield Cir Lot 8,Arden,NC,28704,325000,3,3.0,Arden,2702,25700,1997,714,120,,Sold,,,http://www.redfin.com/NC/Arden/6-Muirfield-Cir-28704/unit-8/home/145019908,CMLS,3154499,N,Y,35.4809954,-82.5019446
PAST SALE,January-5-2015,Single Family Residential,27 Hickory Hls,Arden,NC,28704,260000,3,3.0,Hickory Hills,2298,,1986,1193,113,,Sold,,,http://www.redfin.com/NC/Arden/27-Hickory-Hills-Dr-28704/home/102043085,NCMMLS,NCM572024,N,Y,35.476027,-82.501973
PAST SALE,January-18-2013,Single Family Residential,293 MERRILLS COVE Rd,Asheville,NC,28803,225000,3,2.0,Asheville,2160,298821,2002,1910,104,,Sold,,,http://www.redfin.com/NC/Asheville/293-Merrills-Cove-Rd-28803/home/102046656,CMLS,NCM523546,N,Y,35.4968303,-82.4707328
PAST SALE,October-2-2013,Single Family Residential,26 Spring Cv,Arden,NC,28704,329900,4,4.0,Spring Cove,2711,,1989,1653,122,100,Sold,,,http://www.redfin.com/NC/Arden/26-Spring-Cove-Ct-28704/home/102051045,NCMMLS,NCM539107,N,Y,35.475195,-82.500887
PAST SALE,September-18-2015,Single Family Residential,5 Walnut Ln,Fletcher,NC,28732,560000,4,3.5,Fletcher,3797,115434,1994,937,147,400,Sold,,,http://www.redfin.com/NC/Fletcher/5-Walnut-Ln-28732/home/102049680,CMLS,NCM582761,N,Y,35.476641,-82.473594
PAST SALE,February-17-2017,Single Family Residential,82 Cherokee Trl,Fletcher,NC,28732,344900,3,2.0,Fletcher,2049,43995,1995,419,168,35,Sold,,,http://www.redfin.com/NC/Fletcher/82-Cherokee-Trl-28732/home/109490556,CMLS,3228268,N,Y,35.482951,-82.470203
PAST SALE,July-11-2013,Single Family Residential,14 Emmas Way,Fletcher,NC,28732,292500,3,2.0,Fletcher,2345,25700,2010,1736,125,,Sold,,,http://www.redfin.com/NC/Fletcher/14-Emmas-Way-28732/home/102041112,CMLS,NCM533005,N,Y,35.493746,-82.45187
PAST SALE,July-31-2015,Single Family Residential,1239 CANE CREEK Rd,Fletcher,NC,28732,2901000,4,3.5,Fletcher,3635,1806868,2002,986,798,,Sold,,,http://www.redfin.com/NC/Fletcher/1239-Cane-Creek-Rd-28732/home/102031939,CMLS,NCM566063,N,Y,35.4739282,-82.4587278
PAST SALE,November-25-2014,Vacant Land,LOT 2 Sheep Pasture Ln,Fletcher,NC,28732,170000,0,,Ashebrook Estates,,,,1234,,495,Sold,,,http://www.redfin.com/NC/Fletcher/2-Sheep-Pasture-Ln-28732/home/102061510,NCMMLS,NCM569606,N,Y,35.4768698,-82.4704587
PAST SALE,December-11-2015,Single Family Residential,125 Walnut St,Arden,NC,28704,149950,2,1.0,Arden,832,10454,1955,853,180,,Sold,,,http://www.redfin.com/NC/Arden/125-Walnut-St-28704/home/102031081,CMLS,NCM593374,N,Y,35.4750663,-82.5071884
PAST SALE,March-12-2014,Single Family Residential,123 High Top,Asheville,NC,28803,312000,3,2.0,Kenwood,1850,,1992,1492,169,,Sold,,,http://www.redfin.com/NC/Asheville/123-High-Top-Ln-28803/home/102033636,NCMMLS,NCM549478,N,Y,35.4865641,-82.5110998
PAST SALE,November-26-2014,Single Family Residential,9 Weston Heights Dr,Asheville,NC,28803,326500,3,3.0,Weston Heights,2802,,1992,1233,117,,Sold,,,http://www.redfin.com/NC/Asheville/9-Weston-Heights-Dr-28803/home/102035663,NCMMLS,NCM564893,N,Y,35.4880798,-82.488622
PAST SALE,August-31-2015,Single Family Residential,1 Forest Ridge Dr,Arden,NC,28704,217000,3,2.5,Arden,2086,15245,1974,955,104,,Sold,,,http://www.redfin.com/NC/Arden/1-Forest-Ridge-Dr-28704/home/102038010,CMLS,NCM587890,N,Y,35.4815881,-82.4984768
PAST SALE,October-29-2015,Single Family Residential,167 Sycamore Dr,Arden,NC,28704,144000,4,2.0,Arden,1370,7840,1953,896,105,,Sold,,,http://www.redfin.com/NC/Arden/167-Sycamore-Dr-28704/home/102043142,CMLS,NCM505499,N,Y,35.4744647,-82.5163429
PAST SALE,October-30-2013,Single Family Residential,105 Mulberry Rd,Arden,NC,28704,199900,2,3.0,Royal Pines,1560,,2013,1625,128,,Sold,,,http://www.redfin.com/NC/Arden/105-Mulberry-Pl-28704/home/102045080,NCMMLS,NCM544861,N,Y,35.4802963,-82.5078227
PAST SALE,May-19-2015,Single Family Residential,191 Oak Ter,Arden,NC,28704,185000,2,2.0,Royal Pines,1046,,1925,1059,177,,Sold,,,http://www.redfin.com/NC/Arden/191-Oak-Ter-28704/home/102046351,NCMMLS,NCM580983,N,Y,35.4730393,-82.5040168
PAST SALE,June-27-2016,Single Family Residential,466 Royal Pines Dr,Arden,NC,28704,285000,3,3.0,Arden,2018,16552,1990,654,141,,Sold,,,http://www.redfin.com/NC/Arden/466-Royal-Pines-Dr-28704/home/105430246,CMLS,3171411,N,Y,35.4762856,-82.5055815
PAST SALE,June-1-2016,Vacant Land,00000 Ducketts Grv #2,Fletcher,NC,28732,52500,0,,Woodridge Place,,,,680,,,Sold,,,http://www.redfin.com/NC/Fletcher/00000-Ducketts-Grv-28732/unit-2/home/102055342,NCMMLS,3128210,N,Y,35.503236,-82.446858
PAST SALE,February-24-2017,Vacant Land,000 Ducketts Grv #4,Fletcher,NC,28732,52000,0,,Woodridge Place,,37897,,412,,,Sold,,,http://www.redfin.com/NC/Fletcher/000-Ducketts-Grv-28732/unit-4/home/109493360,NCMMLS,3226720,N,Y,35.502986,-82.445537
PAST SALE,March-22-2016,Vacant Land,TBD Spy Pointe #6,Fletcher,NC,28732,74500,0,,Spy Glass Pointe,,,,751,,25,Sold,,,http://www.redfin.com/NC/Fletcher/TBD-Spy-Pointe-Unknown/unit-6/home/102178404,NCMMLS,3132593,N,Y,35.517782,-82.433504
PAST SALE,January-3-2014,Single Family Residential,221 John Tate,Fletcher,NC,28732,116500,1,1.0,Fletcher,630,,2004,1560,185,,Sold,,,http://www.redfin.com/NC/Fletcher/221-John-Tate-Dr-28732/home/102041764,NCMMLS,NCM542734,N,Y,35.51657,-82.428165
PAST SALE,September-16-2013,Single Family Residential,37 Graylyn Dr,Fairview,NC,28730,339000,3,3.0,Graylyn Estates,2991,,2004,1669,113,75,Sold,,,http://www.redfin.com/NC/Fairview/37-Graylyn-Dr-28730/home/102046287,NCMMLS,NCM534664,N,Y,35.532811,-82.437975
PAST SALE,May-20-2015,Single Family Residential,4 Glen Coe Dr,Fletcher,NC,28732,393980,4,3.5,Fletcher,4142,40510,2014,1058,95,200,Sold,,,http://www.redfin.com/NC/Fletcher/4-Glen-Coe-Dr-28732/home/102040585,CMLS,NCM573400,N,Y,35.4811605,-82.4428289
PAST SALE,June-8-2015,Single Family Residential,38 Franklin Farm Rd,Fletcher,NC,28732,560000,4,4.5,Fletcher,4150,67953,1998,1039,135,600,Sold,,,http://www.redfin.com/NC/Fletcher/38-Franklin-Farm-Rd-28732/home/102047585,CMLS,NCM569037,N,Y,35.48763,-82.440914
PAST SALE,September-1-2016,Single Family Residential,756 Concord Rd,Fletcher,NC,28732,289900,3,2.0,Fletcher,1727,36154,1988,588,168,,Sold,,,http://www.redfin.com/NC/Fletcher/756-Concord-Rd-28732/home/105627247,CMLS,3180270,N,Y,35.483286,-82.448622
PAST SALE,September-17-2015,Single Family Residential,26 Mountainberry,Fairview,NC,28730,260000,3,2.0,Fairview,1626,,1999,938,160,,Sold,,,http://www.redfin.com/NC/Fairview/26-Mountainberry-Ln-28730/home/102035041,NCMMLS,NCM590811,N,Y,35.513377,-82.4224629
PAST SALE,December-6-2012,Single Family Residential,8 Briarwood Ln,Fletcher,NC,28732,230000,3,2.0,Fletcher,1860,39639,1984,1953,124,,Sold,,,http://www.redfin.com/NC/Fletcher/8-Briarwood-Ln-28732/home/102038322,CMLS,NCM527204,N,Y,35.5054479,-82.4398351
PAST SALE,May-28-2015,Mobile/Manufactured Home,129 Concord Rd,Asheville,NC,28803,163000,2,2.0,Asheville,1535,21780,2012,1050,106,,Sold,,,http://www.redfin.com/NC/Asheville/129-Concord-Rd-28803/home/102032700,CMLS,NCM582313,N,Y,35.489905,-82.48732
PAST SALE,March-26-2015,Single Family Residential,126 Coachman's Trl,Asheville,NC,28803,360000,4,4.0,Coachmans Trail,2514,,1994,1113,143,250,Sold,,,http://www.redfin.com/NC/Asheville/126-Coachmans-Trl-28803/home/102033273,NCMMLS,NCM566376,N,Y,35.557396,-82.491418
PAST SALE,June-13-2014,Vacant Land,00 Oak Ter,Arden,NC,28704,19000,0,,Royal Pines,,,,1399,,150,Sold,,,http://www.redfin.com/NC/Arden/0-Oak-Ter-28704/home/102060859,NCMMLS,NCM533511,N,Y,35.4787486,-82.5067628
PAST SALE,June-3-2016,Single Family Residential,18 Balsam,Arden,NC,28704,314085,3,3.0,Mount Royal,1885,,2016,678,167,,Sold,,,http://www.redfin.com/NC/Arden/18-Balsam-Ct-28704/home/102173388,NCMMLS,3132929,N,Y,35.4794715,-82.5147881
PAST SALE,June-15-2016,Condo/Co-op,510 Woodfield Dr #510,Asheville,NC,28803,257500,3,4.0,Asheville,2848,,1985,666,90,295,Sold,,,http://www.redfin.com/NC/Asheville/510-Woodfield-Dr-28803/unit-510/home/145032606,CMLS,3156039,N,Y,35.5550939,-82.479104
PAST SALE,October-22-2014,Condo/Co-op,18 Timberlake Dr,Asheville,NC,28803,170600,3,2.0,Laurel Creek,1428,,1990,1268,119,271,Sold,,,http://www.redfin.com/NC/Asheville/18-Timberlake-Dr-28803/home/102046516,NCMMLS,NCM555369,N,Y,35.5516662,-82.4835949
PAST SALE,March-26-2012,Single Family Residential,329 Cedar Crest Dr,Asheville,NC,28803,310000,3,2.5,Asheville,2934,45302,1995,2208,106,500,Sold,,,http://www.redfin.com/NC/Asheville/329-Cedar-Crest-Dr-28803/home/111206211,CMLS,NCM488871,N,Y,35.544746,-82.462659
PAST SALE,September-3-2015,Single Family Residential,336 Cedar Crst,Asheville,NC,28803,443090,4,4.5,Asheville,3198,32670,2003,952,139,500,Sold,,,http://www.redfin.com/NC/Asheville/336-Cedar-Crest-Dr-28803/home/102039769,CMLS,NCM589706,N,Y,35.546105,-82.463381
PAST SALE,June-1-2016,Vacant Land,151 DJ Dr Unit 326B,Fairview,NC,28730,120000,,,Fairview,,174240,,680,,1400,Sold,,,http://www.redfin.com/NC/Fairview/151-D-J-Dr-28730/unit-326B/home/145049814,CMLS,3165499,N,Y,35.5274664,-82.4709602
PAST SALE,May-28-2015,Single Family Residential,34 HEMPHILL KNOLL Rd,Asheville,NC,28803,265000,3,1.0,Asheville,1386,54450,,1050,191,,Sold,,,http://www.redfin.com/NC/Asheville/34-Hemphill-Knoll-Rd-28803/home/102046208,CMLS,NCM572903,N,Y,35.5582356,-82.4856611
PAST SALE,June-7-2013,Single Family Residential,18 Wyntree Dr,Asheville,NC,28803,340000,4,2.5,Asheville,2442,10454,2002,1770,139,,Sold,,,http://www.redfin.com/NC/Asheville/18-Wyntree-Dr-28803/home/102047096,CMLS,NCM535823,N,Y,35.5527057,-82.4876492
PAST SALE,December-1-2014,Single Family Residential,97 Laurel Crk,Asheville,NC,28803,350000,3,2.0,Laurel Creek,1890,,1984,1228,185,71,Sold,,,http://www.redfin.com/NC/Asheville/97-Laurel-Creek-Dr-28803/home/102048377,NCMMLS,NCM556181,N,Y,35.5512313,-82.4871831
PAST SALE,August-17-2015,Condo/Co-op,103 Windward Dr,Asheville,NC,28803,240000,4,3.0,Laurel Creek,2885,,1986,969,83,213,Sold,,,http://www.redfin.com/NC/Asheville/103-Windward-Dr-28803/home/102049007,NCMMLS,NCM571429,N,Y,35.5511764,-82.4849411
PAST SALE,May-26-2015,Single Family Residential,6 Wyntree Dr,Asheville,NC,28803,331500,4,3.5,Asheville,2893,18730,2005,1052,115,,Sold,,,http://www.redfin.com/NC/Asheville/6-Wyntree-Dr-28803/home/102049826,CMLS,NCM581046,N,Y,35.5525008,-82.4884528
PAST SALE,November-23-2015,Single Family Residential,30 Cedarcliff,Asheville,NC,28803,1400000,5,6.0,Biltmore Forest,4668,,1925,871,300,,Sold,,,http://www.redfin.com/NC/Asheville/30-Cedarcliff-Cir-28803/home/103436034,NCMMLS,NCM582173,N,Y,35.5523481,-82.481579
PAST SALE,June-24-2016,Condo/Co-op,40 Cedarcliff Unit GIII-25,Asheville,NC,28803,235000,2,2.0,Laurel Place,1543,5662,1989,657,152,309,Sold,,,http://www.redfin.com/NC/Asheville/40-Cedarcliff-Cir-28803/home/106066614,NCMMLS,3182756,N,Y,35.5520995,-82.4820232
PAST SALE,August-25-2016,Condo/Co-op,27 Cedarcliff #27,Asheville,NC,28803,245000,2,2.0,Laurel Creek,1406,,1987,595,174,309,Sold,,,http://www.redfin.com/NC/Asheville/27-Cedarcliff-Cir-28803/home/108355359,NCMMLS,3194006,N,Y,35.55185,-82.481431
PAST SALE,October-17-2016,Single Family Residential,184 Rosehill Rd,Asheville,NC,28803,305000,3,2.5,Asheville,2001,43124,1999,542,152,,Sold,,,http://www.redfin.com/NC/Asheville/184-Rose-Hill-Rd-28803/home/108522726,CMLS,3204137,N,Y,35.5344226,-82.4835461
PAST SALE,April-13-2012,Single Family Residential,603 Rose Hl,Asheville,NC,28803,197500,3,2.0,Asheville,1912,22215,1986,2190,103,,Sold,,,http://www.redfin.com/NC/Asheville/603-Rose-Hill-Rd-28803/home/110859200,CMLS,NCM489537,N,Y,35.5526926,-82.4806272
PAST SALE,June-10-2014,Single Family Residential,39 Laurel Loop,Fletcher,NC,28732,30000,3,2.0,Fletcher,1552,,1985,1402,19,,Sold,,,http://www.redfin.com/NC/Fletcher/39-Laurel-Loop-Rd-28732/home/102042639,NCMMLS,NCM559238,N,Y,35.49897,-82.428963
PAST SALE,August-30-2016,Single Family Residential,614 Emmas Grv,Fairview,NC,28730,222000,2,1.0,Fairview,1016,65340,1954,590,219,,Sold,,,http://www.redfin.com/NC/Fairview/614-Emmas-Grv-28730/home/105447735,NCMMLS,3172893,N,Y,35.519092,-82.439395
PAST SALE,November-10-2016,Vacant Land,9999 Charlotte,Fairview,NC,28730,20000,0,,Fairview,,14810,,518,,,Sold,,,http://www.redfin.com/NC/Fairview/9999-Charlotte-28730/home/102088122,NCMMLS,3131536,N,Y,35.522878,-82.421092
PAST SALE,November-25-2013,Single Family Residential,37 Pack,Fletcher,NC,28732,170000,3,2.0,Naples Knoll,1380,,2013,1599,123,,Sold,,,http://www.redfin.com/NC/Fletcher/37-Kit-Ct-28732/home/103435763,NCMMLS,NCM533455,N,Y,35.514749,-82.4465447
PAST SALE,March-18-2016,Mobile/Manufactured Home,25 Winding Way,Fairview,NC,28730,34000,2,1.0,Fairview,660,14810,1973,755,52,,Sold,,,http://www.redfin.com/NC/Fairview/25-Winding-Way-28730/home/102876895,CMLS,3140789,N,Y,35.523933,-82.430537
PAST SALE,June-10-2014,Single Family Residential,39 Laurel Loop,Fletcher,NC,28732,30000,3,2.0,Fletcher,1552,43560,1985,1402,19,,Sold,,,http://www.redfin.com/NC/Fletcher/39-Laurel-Loop-Rd-28732/home/145033498,CMLS,NCM559238,N,Y,35.49897,-82.428963
PAST SALE,July-5-2012,Single Family Residential,211 GREEN MEADOW Ln,Fairview,NC,28732,375000,4,3.0,Fairview,2900,47044,1997,2107,129,250,Sold,,,http://www.redfin.com/NC/Fletcher/211-Green-Meadow-Ln-28732/home/145037781,CMLS,NCM516664,N,Y,35.4974573,-82.4487166
PAST SALE,February-13-2012,Vacant Land,25 Chesten Mountain Dr,Asheville,NC,28803,105000,,,Asheville,,189485,,2250,,,Sold,,,http://www.redfin.com/NC/Asheville/25-Chesten-Mountain-Dr-28803/home/111268129,CMLS,NCM465311,N,Y,35.5425601,-82.461474
PAST SALE,November-9-2015,Vacant Land,41 Gravely Branch Rd,Fletcher,NC,28732,64000,,,Fletcher,,67953,,885,,100,Sold,,,http://www.redfin.com/NC/Fletcher/41-Gravely-Branch-Rd-28732/home/102058623,CMLS,NCM592637,N,Y,35.495823,-82.446839
PAST SALE,September-16-2013,Single Family Residential,20 Fairview Hills Dr,Fairview,NC,28730,252500,3,4.0,Fairview Hills,2084,,1989,1669,121,,Sold,,,http://www.redfin.com/NC/Fairview/20-Fairview-Hills-Dr-28730/home/102044067,NCMMLS,NCM545147,N,Y,35.5333318,-82.4348826
PAST SALE,August-23-2016,Single Family Residential,406 Emmas Grove Rd,Fletcher,NC,28732,215000,3,2.0,Fletcher,1404,29620,2004,597,153,,Sold,,,http://www.redfin.com/NC/Fletcher/406-Emmas-Grove-Rd-28732/home/105664557,CMLS,3181290,N,Y,35.5081326,-82.4426287
PAST SALE,December-18-2015,Condo/Co-op,106 Dutchman #106,Asheville,NC,28803,362500,4,3.0,Southside Village,2655,,1999,846,137,,Sold,,,http://www.redfin.com/NC/Asheville/106-Dutchman-Ln-28803/home/102027701,NCMMLS,3123927,N,Y,35.491123,-82.508115
PAST SALE,May-7-2012,Single Family Residential,28 HEAVENS Vw,Asheville,NC,28803,186000,3,3.0,Asheville,1350,60983,1984,2166,138,,Sold,,,http://www.redfin.com/NC/Asheville/28-Heavens-View-Dr-28803/home/111042867,CMLS,NCM489823,N,Y,35.556202,-82.49402
PAST SALE,October-6-2016,Single Family Residential,140 Anderson Oaks,Fletcher,NC,28732,950000,3,3.0,Ashbrook,2542,295336,2003,553,374,40,Sold,,,http://www.redfin.com/NC/Fletcher/140-Anderson-Oaks-Dr-28732/home/109242748,NCMMLS,3220833,N,Y,35.476462,-82.465624
PAST SALE,May-24-2013,Single Family Residential,26 BATON Ln,Asheville,NC,28803,355000,3,2.0,Asheville,3077,42688,2003,1784,115,,Sold,,,http://www.redfin.com/NC/Asheville/26-Baton-Ln-28803/home/102044839,CMLS,NCM534848,N,Y,35.510607,-82.490926
PAST SALE,October-24-2014,Single Family Residential,3 Hickory Crk,Arden,NC,28704,433900,4,3.0,Glen Cove,4085,,1987,1266,106,,Sold,,,http://www.redfin.com/NC/Arden/3-Hickory-Creek-Ct-28704/home/102035582,NCMMLS,NCM565671,N,Y,35.473471,-82.494017
PAST SALE,November-19-2014,Single Family Residential,3 Mayfair Pl,Arden,NC,28704,248000,3,3.0,Muirfield,2580,,1978,1240,96,25,Sold,,,http://www.redfin.com/NC/Arden/3-Mayfair-Pl-28704/home/102048399,NCMMLS,NCM571267,N,Y,35.4799409,-82.499605
PAST SALE,November-15-2012,Single Family Residential,22 Southbrook Dr,Fletcher,NC,28732,350000,4,3.5,Fletcher,3620,33105,1999,1974,97,214,Sold,,,http://www.redfin.com/NC/Fletcher/22-S-Brook-Dr-28732/home/110927847,CMLS,NCM511714,N,Y,35.477797,-82.483997
PAST SALE,July-12-2012,Single Family Residential,251 Bee Ridge Rd,Asheville,NC,28803,110000,2,1.0,Asheville,832,32234,1954,2100,132,,Sold,,,http://www.redfin.com/NC/Asheville/251-Bee-Ridge-Rd-28803/home/111161685,CMLS,NCM486715,N,Y,35.5393199,-82.486989
PAST SALE,October-28-2014,Single Family Residential,113 Concord Rd,Asheville,NC,28803,116000,3,2.0,Asheville,2128,,1998,1262,55,,Sold,,,http://www.redfin.com/NC/Asheville/113-Concord-Rd-28803/home/102042656,NCMMLS,NCM559298,N,Y,35.4903202,-82.487876
PAST SALE,October-29-2015,Single Family Residential,140 Stonecrest Dr,Asheville,NC,28803,488750,3,3.5,Asheville,3118,57499,2001,896,157,363,Sold,,,http://www.redfin.com/NC/Asheville/140-Stonecrest-Dr-28803/home/102034884,CMLS,NCM587549,N,Y,35.536552,-82.46983
PAST SALE,February-19-2014,Single Family Residential,22 Tree Top Dr,Arden,NC,28704,350000,3,3.0,Glen Cove,2540,,1987,1513,138,,Sold,,,http://www.redfin.com/NC/Arden/22-Tree-Top-Dr-28704/home/102043256,NCMMLS,NCM545104,N,Y,35.471407,-82.4931919
PAST SALE,January-13-2016,Mobile/Manufactured Home,191 White Oak Gap Rd,Asheville,NC,28803,150000,3,2.0,Asheville,1904,78843,1998,820,79,240,Sold,,,http://www.redfin.com/NC/Asheville/191-White-Oak-Gap-Rd-28803/home/145042374,CMLS,NCM593445,N,Y,35.5179529,-82.4797315
PAST SALE,September-30-2013,Single Family Residential,360 Pinners Cove Rd,Asheville,NC,28803,216500,3,2.0,Asheville,1522,,1975,1655,142,,Sold,,,http://www.redfin.com/NC/Asheville/360-Pinners-Cove-Rd-28803/home/102049946,NCMMLS,NCM545235,N,Y,35.516546,-82.49736
PAST SALE,September-7-2016,Single Family Residential,30 Carver Dr,Fletcher,NC,28732,385000,3,3.0,Fletcher,3188,31363,1968,582,121,,Sold,,,http://www.redfin.com/NC/Fletcher/30-Carver-Dr-28732/home/105477855,CMLS,3172850,N,Y,35.478632,-82.48002
PAST SALE,August-22-2012,Vacant Land,37 Mount Royal Dr,Arden,NC,28704,42000,,,Arden,,37897,,2059,,,Sold,,,http://www.redfin.com/NC/Arden/37-Mount-Royal-Dr-28704/unit-37/home/102052384,CMLS,NCM521772,N,Y,35.4770988,-82.5093409
PAST SALE,December-17-2015,Condo/Co-op,106 Colony,Arden,NC,28704,110000,3,3.0,The Colony,1282,,1973,847,86,185,Sold,,,http://www.redfin.com/NC/Arden/106-Colony-Dr-28704/home/102025810,NCMMLS,NCM588844,N,Y,35.4710429,-82.513658
PAST SALE,January-31-2017,Single Family Residential,213 Saint Johns St,Arden,NC,28704,216500,3,2.0,Arden,2431,13939,1975,436,89,,Sold,,,http://www.redfin.com/NC/Arden/213-Saint-Johns-St-28704/home/102027897,CMLS,3223516,N,Y,35.4709592,-82.5023887
PAST SALE,May-27-2016,Single Family Residential,15 Weston Heights Dr,Asheville,NC,28803,411000,4,3.5,Asheville,2916,70131,1998,685,141,,Sold,,,http://www.redfin.com/NC/Asheville/15-Weston-Heights-Dr-28803/home/102028914,CMLS,NCM594589,N,Y,35.4869743,-82.4872685
PAST SALE,June-2-2016,Townhouse,137 Colony Dr,Arden,NC,28704,95000,1,1.0,Arden,768,,1973,679,124,187,Sold,,,http://www.redfin.com/NC/Arden/137-Colony-Dr-28704/home/102033465,CMLS,3164650,N,Y,35.4701652,-82.5139117
PAST SALE,June-12-2015,Single Family Residential,216 Laurel Rd,,NC,28704,295300,3,2.0,,2646,50093,1974,1035,112,,Sold,,,http://www.redfin.com/NC/Arden/216-Laurel-Rd-28704/home/102033742,CMLS,NCM586974,N,Y,35.4788155,-82.5045243
PAST SALE,July-27-2015,Single Family Residential,200 Oak Ter,Arden,NC,28704,169000,3,1.0,Arden,1320,13939,1964,990,128,,Sold,,,http://www.redfin.com/NC/Arden/200-Oak-Ter-28704/home/102034219,CMLS,NCM585568,N,Y,35.4720148,-82.5046511
PAST SALE,January-30-2015,Single Family Residential,20 Laurel Rd,Arden,NC,28704,220000,3,3.0,Mount Royal,1424,,2014,1168,154,,Sold,,,http://www.redfin.com/NC/Arden/20-Laurel-Rd-28704/home/102035537,NCMMLS,NCM562648,N,Y,35.4752844,-82.5106981
PAST SALE,October-19-2016,Single Family Residential,120 Walnut St,Arden,NC,28704,188000,3,1.5,Arden,1602,9147,1983,540,117,,Sold,,,http://www.redfin.com/NC/Arden/120-Walnut-St-28704/home/102039413,CMLS,3212937,N,Y,35.4752386,-82.5079073
PAST SALE,August-23-2013,Single Family Residential,320 Rosscraggon,Arden,NC,28704,145000,2,1.0,Arden,1140,,1981,1693,127,,Sold,,,http://www.redfin.com/NC/Arden/320-Rosscraggon-Rd-28704/home/102041356,NCMMLS,NCM544151,N,Y,35.4836508,-82.5162583
PAST SALE,August-12-2015,Single Family Residential,6 Stones Throw,Asheville,NC,28803,167000,3,2.0,Asheville,1891,28314,2002,974,88,,Sold,,,http://www.redfin.com/NC/Asheville/6-Stones-Throw-Ln-28803/home/102041393,CMLS,NCM578038,N,Y,35.4870004,-82.4958969
PAST SALE,June-29-2012,Single Family Residential,35 Mountain Site Ln,Asheville,NC,28803,200000,3,3.0,Asheville,2006,26136,1995,2113,100,,Sold,,,http://www.redfin.com/NC/Asheville/35-Mountain-Site-Ln-28803/home/110862449,CMLS,NCM510212,N,Y,35.4912354,-82.5140385
PAST SALE,June-15-2012,Single Family Residential,390 Royal Pines Dr,Arden,NC,28704,88000,2,2.0,Arden,1024,12196,1953,2127,86,,Sold,,,http://www.redfin.com/NC/Arden/390-Royal-Pines-Dr-28704/home/111270698,CMLS,NCM505624,N,Y,35.4749061,-82.5080341
PAST SALE,July-25-2012,Single Family Residential,515 SADDLEBACK Ct,Asheville,NC,28803,220000,3,2.5,Asheville,1446,16552,1991,2087,152,300,Sold,,,http://www.redfin.com/NC/Asheville/515-Saddleback-Ct-28803/home/111193225,CMLS,NCM517238,N,Y,35.489576,-82.506325
PAST SALE,February-29-2016,Single Family Residential,6 Crestview Ct,Arden,NC,28704,225000,4,2.0,Arden,1600,21780,1968,773,141,,Sold,,,http://www.redfin.com/NC/Arden/6-Crestview-Ct-28704/home/102028875,CMLS,NCM591759,N,Y,35.47564,-82.498033
PAST SALE,May-20-2015,Single Family Residential,17 Shelby,Asheville,NC,28803,213750,3,2.0,The Oaks,1922,,1980,1058,111,200,Sold,,,http://www.redfin.com/NC/Asheville/17-Shelby-Dr-28803/home/102047982,NCMMLS,NCM580554,N,Y,35.498973,-82.4975989
PAST SALE,June-24-2016,Single Family Residential,15 Bonnies,Asheville,NC,28803,450600,3,3.0,Asheville,2750,54885,2007,657,164,,Sold,,,http://www.redfin.com/NC/Asheville/15-Avondale-Rd-28803/home/105489060,NCMMLS,3173044,N,Y,35.558462,-82.490906
PAST SALE,June-1-2016,Vacant Land,00000 Ducketts Grv #3,Fletcher,NC,28732,52500,0,,Woodridge Place,,,,680,,,Sold,,,http://www.redfin.com/NC/Fletcher/3-Duckett-s-Grove-Rd-28732/home/102053817,NCMMLS,3128276,N,Y,35.502539,-82.444334
PAST SALE,August-19-2016,Vacant Land,475 Concord Lowr Lot,Fletcher,NC,28732,85000,0,,Fletcher,,165963,,601,,,Sold,,,http://www.redfin.com/NC/Fletcher/475-Concord-Rd-28732/home/103933155,NCMMLS,3148837,N,Y,35.484096,-82.468044
PAST SALE,August-21-2015,Vacant Land,0 Brian,Fletcher,NC,28732,110000,0,,Fletcher,,,,965,,,Sold,,,http://www.redfin.com/NC/Fletcher/0-O-Brian-s-Way-28732/home/102059207,NCMMLS,NCM588371,N,Y,35.4874837,-82.4784533
PAST SALE,March-12-2015,Condo/Co-op,,Arden,NC,28704,225000,3,3.0,,2141,,1974,1127,105,307,Sold,,,http://www.redfin.com/NC/Arden/Undisclosed-address-28704/home/102043932,NCMMLS,NCM576411,N,Y,35.48095,-82.495456
PAST SALE,November-24-2014,Single Family Residential,239 Rose Hill Rd,Asheville,NC,28803,172000,2,3.0,Asheville,1784,,2000,1235,96,,Sold,,,http://www.redfin.com/NC/Asheville/239-Rose-Hill-Rd-28803/home/102046981,NCMMLS,NCM568885,N,Y,35.5366791,-82.4829116
PAST SALE,June-6-2016,Single Family Residential,16 Woodland,Fairview,NC,28730,279000,3,2.0,Fairview,1828,40946,1996,675,153,,Sold,,,http://www.redfin.com/NC/Fairview/16-Woodland-Ave-28730/home/102029853,NCMMLS,3154998,N,Y,35.5225892,-82.4302604
PAST SALE,September-15-2015,Vacant Land,92 Gobbler Ridge Dr,Arden,NC,28704,115000,0,,Soapstone Creek Estates,,,,940,,600,Sold,,,http://www.redfin.com/NC/Arden/92-Forest-Ridge-Dr-28704/home/102058348,NCMMLS,NCM561778,N,Y,35.484079,-82.4998004
PAST SALE,July-26-2016,Single Family Residential,15 Magnolia Woods Ln,Fletcher,NC,28732,350000,3,2.5,Fletcher,2366,33541,2008,625,148,8,Sold,,,http://www.redfin.com/NC/Fletcher/15-Magnolia-Woods-Ln-28732/home/102030515,CMLS,3122044,N,Y,35.495111,-82.446812
PAST SALE,May-23-2013,Single Family Residential,139 Laurel Loop Rd,Fletcher,NC,28732,57500,2,2.0,Fletcher,1050,23086,1991,1785,55,,Sold,,,http://www.redfin.com/NC/Fletcher/139-Laurel-Loop-Rd-28732/home/102037277,CMLS,NCM529674,N,Y,35.498529,-82.431965
PAST SALE,December-14-2015,Single Family Residential,115 Emmas Grove Rd,Fletcher,NC,28732,350000,3,2.0,Fletcher,1498,144619,1969,850,234,,Sold,,,http://www.redfin.com/NC/Fletcher/115-Emmas-Grove-Rd-28732/home/102029898,CMLS,NCM593497,N,Y,35.493206,-82.4534089
PAST SALE,February-1-2013,Vacant Land,43 Logan Ln,Fletcher,NC,28732,15000,,,Fletcher,,21780,,1896,,,Sold,,,http://www.redfin.com/NC/Fletcher/43-Rr-1-28732/home/102059457,CMLS,NCM522653,N,Y,35.4833775,-82.4645697
PAST SALE,March-29-2016,Mobile/Manufactured Home,573 SE Concord Rd,Fletcher,NC,28732,140000,3,2.0,Fletcher,1400,14810,2011,744,100,,Sold,,,http://www.redfin.com/NC/Fletcher/573-Concord-Rd-28732/home/102280579,CMLS,3135163,N,Y,35.4859137,-82.4626579
PAST SALE,November-7-2014,Single Family Residential,93 Merrill Rd,Fletcher,NC,28732,171000,3,3.0,Fletcher,1900,,1983,1252,90,,Sold,,,http://www.redfin.com/NC/Fletcher/93-Merrill-Rd-28732/home/102045158,NCMMLS,NCM572449,N,Y,35.515592,-82.440786
PAST SALE,January-5-2015,Single Family Residential,25 Sedgewood Ct,Fairview,NC,28730,346000,3,3.0,Sedgewood,2446,,1987,1193,141,50,Sold,,,http://www.redfin.com/NC/Fairview/25-Sedgewood-Ct-28730/home/102047224,NCMMLS,NCM573029,N,Y,35.5221277,-82.4394237
PAST SALE,January-30-2015,Single Family Residential,1 Zia Ln,Asheville,NC,28803,285000,3,2.0,Creekwood,1751,,2000,1168,163,,Sold,,,http://www.redfin.com/NC/Asheville/1-Zia-Ln-28803/home/102046205,NCMMLS,NCM572897,N,Y,35.5134,-82.466741
PAST SALE,January-20-2015,Single Family Residential,3 Wyoke Rd,Fletcher,NC,28732,155000,3,4.0,Cane Creek Woods,2229,,1972,1178,70,,Sold,,,http://www.redfin.com/NC/Fletcher/3-Wyoke-Rd-28732/home/102047021,NCMMLS,NCM573100,N,Y,35.4845759,-82.451004
PAST SALE,July-6-2015,Single Family Residential,14 New Bishop Ln,Fletcher,NC,28732,335000,3,2.5,Fletcher,2400,31798,2008,1011,140,150,Sold,,,http://www.redfin.com/NC/Fletcher/14-New-Bishop-Ln-28732/home/102040186,CMLS,NCM579756,N,Y,35.493312,-82.452648
PAST SALE,October-14-2015,Single Family Residential,53 Fox Rdg,Fletcher,NC,28732,387500,3,3.0,Fletcher,3112,31363,1995,911,125,75,Sold,,,http://www.redfin.com/NC/Fletcher/53-Fox-Ridge-Dr-28732/home/111087172,CMLS,NCM583181,N,Y,35.512596,-82.44725
PAST SALE,July-21-2015,Single Family Residential,204 Creek Circle Rd,Fairview,NC,28730,102500,3,2.0,Fairview,960,41817,2004,996,107,,Sold,,,http://www.redfin.com/NC/Fairview/204-Creek-Circle-Rd-28730/home/102050524,CMLS,NCM583187,N,Y,35.537766,-82.446009
PAST SALE,September-28-2012,Single Family Residential,198 Two Brooks Trl,Fletcher,NC,28732,660000,4,5.5,Fletcher,4695,90604,2005,2022,141,,Sold,,,http://www.redfin.com/NC/Fletcher/198-2-Brooks-Trl-28732/home/111230456,CMLS,NCM515609,N,Y,35.482734,-82.468315
PAST SALE,December-15-2014,Single Family Residential,201 Cedar Mtn,Asheville,NC,28803,400000,3,3.0,Asheville,3414,,1998,1214,117,,Sold,,,http://www.redfin.com/NC/Asheville/201-Cedar-Mountain-Rd-28803/home/102033480,NCMMLS,NCM561292,N,Y,35.539173,-82.46447
PAST SALE,June-30-2014,Single Family Residential,147 Stonecrest Dr,Asheville,NC,28803,427500,3,2.0,Ridgeview Estates,2271,,2006,1382,188,,Sold,,,http://www.redfin.com/NC/Asheville/147-Stonecrest-Dr-28803/home/102037602,NCMMLS,NCM561970,N,Y,35.534887,-82.47207
PAST SALE,September-30-2016,Single Family Residential,27 Acorn Ln,Fletcher,NC,28732,585000,3,3.0,Fletcher,2048,291852,1998,559,286,,Sold,,,http://www.redfin.com/NC/Fletcher/27-Acorn-Ln-28732/home/108237823,CMLS,3192638,N,Y,35.493267,-82.460565
PAST SALE,March-8-2016,Single Family Residential,652 Merrills Cove Rd,Asheville,NC,28803,575000,3,2.5,Asheville,2908,111513,1997,765,198,,Sold,,,http://www.redfin.com/NC/Asheville/652-Merrills-Cove-Rd-28803/home/102029081,CMLS,NCM591948,N,Y,35.514211,-82.47057
PAST SALE,October-5-2016,Mobile/Manufactured Home,115 Creekwood Cv,Fairview,NC,28730,75000,2,2.0,Fairview,980,37026,1986,554,77,,Sold,,,http://www.redfin.com/NC/Fairview/115-Creekwood-Cv-28730/home/106439070,CMLS,3186595,N,Y,35.536291,-82.445655
PAST SALE,October-30-2015,Single Family Residential,34 Crown Pt,Asheville,NC,28803,950000,4,4.5,Asheville,3651,59677,2010,895,260,1850,Sold,,,http://www.redfin.com/NC/Asheville/34-Crown-Point-Dr-28806/home/110903053,CMLS,NCM525711,N,Y,35.515135,-82.487575
PAST SALE,February-17-2017,Single Family Residential,597 Merrills Cove Rd,Asheville,NC,28803,340000,3,2.0,Asheville,1768,93218,2012,419,192,,Sold,,,http://www.redfin.com/NC/Asheville/597-Merrills-Cove-Rd-28803/home/108998593,CMLS,3214751,N,Y,35.5102454,-82.4660676
PAST SALE,June-30-2015,Single Family Residential,272 Pinners Cove Rd,Asheville,NC,28803,326000,3,1.5,Asheville,1534,217800,1985,1017,213,,Sold,,,http://www.redfin.com/NC/Asheville/272-Pinners-Cove-Rd-28803/home/102048579,CMLS,NCM582341,N,Y,35.50801,-82.49489
PAST SALE,April-12-2013,Single Family Residential,39 Jean Dr,Asheville,NC,28803,245000,3,2.0,Asheville,2210,45302,1984,1826,111,,Sold,,,http://www.redfin.com/NC/Asheville/39-Jean-Dr-28803/home/102049063,CMLS,488286,N,Y,35.502035,-82.497305
PAST SALE,April-19-2016,Single Family Residential,34 Merrills Chase Rd Unit B,Asheville,NC,28803,555194,3,5.0,Asheville,4197,222155,1988,723,132,,Sold,,,http://www.redfin.com/NC/Asheville/34-Merrills-Chase-Rd-28803/unit-B/home/102031330,CMLS,3129173,N,Y,35.4959085,-82.4773536
PAST SALE,March-15-2016,Single Family Residential,3 Jean Dr,Asheville,NC,28803,232000,3,2.0,Asheville,1388,18730,1981,758,167,17,Sold,,,http://www.redfin.com/NC/Asheville/3-Jean-Dr-28803/home/101729141,CMLS,3130902,N,Y,35.499825,-82.498673
PAST SALE,August-7-2014,Vacant Land,lot  13 Shelby Dr #13,Asheville,NC,28803,35000,0,,The Oaks,,,,1344,,200,Sold,,,http://www.redfin.com/NC/Asheville/13-Shelby-Dr-28803/unit-13/home/102061500,NCMMLS,NCM558599,N,Y,35.5006167,-82.4969207
PAST SALE,June-3-2015,Single Family Residential,23 Mcintyre Dr,Asheville,NC,28803,540700,3,3.0,Asheville,2710,34848,2002,1044,200,700,Sold,,,http://www.redfin.com/NC/Asheville/23-McIntyre-Dr-28803/home/102047984,CMLS,NCM580559,N,Y,35.5040131,-82.4934227
PAST SALE,October-18-2016,Single Family Residential,64 McIntyre Dr,Asheville,NC,28803,795000,4,3.5,Asheville,5792,92782,2007,541,137,63,Sold,,,http://www.redfin.com/NC/Asheville/64-McIntyre-Dr-28803/home/108617812,CMLS,3209376,N,Y,35.5042427,-82.4916463
PAST SALE,March-15-2012,Condo/Co-op,4 Timberlake Dr,Asheville,NC,28803,130000,2,2.0,Asheville,1163,,1988,2219,112,252,Sold,,,http://www.redfin.com/NC/Asheville/4-Timberlake-Dr-28803/home/111043283,CMLS,NCM478648,N,Y,35.552459,-82.483576
PAST SALE,November-30-2016,Single Family Residential,118 Reynolds School Rd,Asheville,NC,28803,235000,3,1.5,Asheville,1038,139392,1940,498,226,,Sold,,,http://www.redfin.com/NC/Asheville/118-Reynolds-School-Rd-28803/home/109198256,CMLS,3219398,N,Y,35.541132,-82.47534
PAST SALE,December-15-2016,Single Family Residential,7 Creekside Ct,Asheville,NC,28803,340000,3,2.0,Asheville,2047,12632,1987,483,166,64,Sold,,,http://www.redfin.com/NC/Asheville/7-Creekside-Ln-28803/home/109266964,CMLS,3222399,N,Y,35.553173,-82.483561
PAST SALE,September-11-2012,Single Family Residential,5 STONECREST Dr,Asheville,NC,28803,345000,3,2.5,Asheville,2791,54450,1987,2039,124,330,Sold,,,http://www.redfin.com/NC/Asheville/5-Stonecrest-Dr-28803/home/110814713,CMLS,NCM520325,N,Y,35.539173,-82.471687
PAST SALE,March-13-2014,Single Family Residential,58/60 Amber Ln,Asheville,NC,28803,365000,3,3.0,Foxfire,2212,,2000,1491,165,,Sold,,,http://www.redfin.com/NC/Asheville/50-Amber-Ln-28803/home/102049554,NCMMLS,NCM536738,N,Y,35.521287,-82.478807
PAST SALE,March-13-2014,Single Family Residential,5860 AMBER Ln,Asheville,NC,28803,365000,3,3.0,Asheville,2212,94525,2000,1491,165,,Sold,,,http://www.redfin.com/NC/Asheville/5860-Amber-Ln-28803/home/145022078,CMLS,NCM536738,N,Y,35.5228259,-82.480025
PAST SALE,July-22-2013,Single Family Residential,101 Coachmans Trl,Asheville,NC,28803,285000,4,2.5,Asheville,2244,23522,1999,1725,127,,Sold,,,http://www.redfin.com/NC/Asheville/101-Coachmans-Trl-28803/home/102048941,CMLS,NCM538166,N,Y,35.55898,-82.490917
PAST SALE,March-8-2013,Single Family Residential,214 Coachmans Ct,Asheville,NC,28803,280000,3,3.0,Asheville,3040,26136,1998,1861,92,275,Sold,,,http://www.redfin.com/NC/Asheville/214-Coachmans-Ct-28803/home/102033817,CMLS,NCM526450,N,Y,35.559378,-82.491193
PAST SALE,February-6-2012,Single Family Residential,32 Indian Knob,Asheville,NC,28803,390000,4,3.5,Asheville,3479,51836,2002,2257,112,,Sold,,,http://www.redfin.com/NC/Asheville/32-Indian-Knob-Rd-28803/home/111211947,CMLS,NCM510549,N,Y,35.526156,-82.477151
PAST SALE,July-30-2013,Condo/Co-op,3 Cedarwood Drive Unit 3D,Asheville,NC,28803,140000,2,2.0,Asheville,1265,,1982,1717,111,180,Sold,,,http://www.redfin.com/NC/Asheville/3-Cedarwood-Dr-28803/home/102048061,CMLS,NCM510332,N,Y,35.556382,-82.480785
PAST SALE,April-23-2015,Single Family Residential,12 Ridgeview Way,Asheville,NC,28803,418000,3,3.0,Asheville,2690,42688,1987,1085,155,,Sold,,,http://www.redfin.com/NC/Asheville/12-Ridgeview-Way-28803/home/102035689,CMLS,NCM578713,N,Y,35.539166,-82.472542
PAST SALE,April-11-2016,Single Family Residential,46 Village Pointe Ln,Asheville,NC,28803,435000,4,2.5,Asheville,2813,22651,2007,731,155,30,Sold,,,http://www.redfin.com/NC/Asheville/46-Village-Pointe-Ln-28803/home/102027781,CMLS,NCM579022,N,Y,35.545876,-82.465297
PAST SALE,June-13-2016,Single Family Residential,154 Charland Forest Rd #26,Asheville,NC,28803,210000,3,1.5,Asheville,1288,22651,1965,668,163,25,Sold,,,http://www.redfin.com/NC/Asheville/154-Charland-Forest-Rd-28803/unit-26/home/145032432,CMLS,3165609,N,Y,35.554736,-82.4868032
PAST SALE,February-24-2017,Condo/Co-op,506 Woodfield Dr #506,Asheville,NC,28803,178000,3,3.0,Asheville,1820,,1985,412,98,295,Sold,,,http://www.redfin.com/NC/Asheville/506-Woodfield-Dr-28803/unit-506/home/111917083,CMLS,3194284,N,Y,35.555103,-82.479603
PAST SALE,May-13-2014,Single Family Residential,114 Coachmans Trl,Asheville,NC,28803,312500,4,4.0,Coachmans Trail,2687,,1993,1430,116,275,Sold,,,http://www.redfin.com/NC/Asheville/114-Coachmans-Trl-28803/home/102041786,NCMMLS,NCM555980,N,Y,35.5583,-82.49206
PAST SALE,September-26-2015,Single Family Residential,11 Laurel Place Dr,Asheville,NC,28803,230000,2,2.0,Asheville,1406,5227,1985,929,164,,Sold,,,http://www.redfin.com/NC/Asheville/11-Laurel-Place-Dr-28803/home/102041461,CMLS,NCM590686,N,Y,35.553692,-82.482576
PAST SALE,March-23-2016,Single Family Residential,25 Indian Trl,Asheville,NC,28803,400000,4,3.5,Asheville,2368,95832,1985,750,169,30,Sold,,,http://www.redfin.com/NC/Asheville/25-Indian-Trl-28803/home/103926593,CMLS,3147898,N,Y,35.5274212,-82.4811357
PAST SALE,August-16-2016,Single Family Residential,205 Cedarview Dr,Asheville,NC,28803,425000,3,4.0,Asheville,3497,43560,1987,604,122,200,Sold,,,http://www.redfin.com/NC/Asheville/205-Cedarview-Dr-28803/home/102045353,CMLS,3174208,N,Y,35.5549589,-82.493163
PAST SALE,December-9-2014,Single Family Residential,14 Smokey Rd,Asheville,NC,28803,315500,3,3.0,Asheville,2724,,2002,1220,116,,Sold,,,http://www.redfin.com/NC/Asheville/14-Smokey-Rd-28803/home/102033517,NCMMLS,NCM564625,N,Y,35.524386,-82.487575
PAST SALE,September-14-2016,Single Family Residential,80 White Oak Gap Rd,Asheville,NC,28803,435000,4,2.5,Asheville,3986,138520,2003,575,109,20,Sold,,,http://www.redfin.com/NC/Asheville/80-White-Oak-Gap-Rd-28803/home/108249661,CMLS,3192843,N,Y,35.51973,-82.478651
PAST SALE,July-30-2014,Single Family Residential,25 Barger Rd,Asheville,NC,28803,327000,3,3.0,Asheville,1964,,1978,1352,166,,Sold,,,http://www.redfin.com/NC/Asheville/25-Barger-Rd-28803/home/102051304,NCMMLS,NCM563890,N,Y,35.53365,-82.489762
PAST SALE,June-24-2016,Single Family Residential,2 Reynolda Dr,Asheville,NC,28803,289000,4,3.0,Asheville,1879,17859,1977,657,154,,Sold,,,http://www.redfin.com/NC/Asheville/2-Reynolda-Dr-28803/home/102031743,CMLS,3180731,N,Y,35.549127,-82.48013
PAST SALE,June-10-2016,Vacant Land,57 Cedar Mountain Rd Lot C,Asheville,NC,28803,39250,,,Asheville,,60112,,671,,,Sold,,,http://www.redfin.com/NC/Asheville/57-Cedar-Mountain-Rd-28803/unit-C/home/145053781,CMLS,3153549,N,Y,35.5448579,-82.4619729
PAST SALE,June-27-2016,Vacant Land,36 Stonecrest Dr #36,Asheville,NC,28803,32000,,,Asheville,,37461,,654,,165,Sold,,,http://www.redfin.com/NC/Asheville/36-Stonecrest-Dr-28803/unit-36/home/102056142,CMLS,NCM529449,N,Y,35.5387404,-82.472381
PAST SALE,December-30-2013,Single Family Residential,26 Lovers Loop Rd,Asheville,NC,28803,210000,4,3.0,Asheville,1714,,1983,1564,123,,Sold,,,http://www.redfin.com/NC/Asheville/26-Lovers-Loop-Rd-28803/home/102034329,NCMMLS,NCM550633,N,Y,35.5536184,-82.4906946
PAST SALE,April-13-2015,Single Family Residential,155 Charland Forest Rd,Asheville,NC,28803,194000,3,1.5,Asheville,1762,18295,1965,1095,110,25,Sold,,,http://www.redfin.com/NC/Asheville/155-Charland-Forest-Rd-28803/home/102035024,CMLS,NCM578673,N,Y,35.5553443,-82.4870147
PAST SALE,June-27-2014,Mobile/Manufactured Home,30 Rainbow Hills Dr,Asheville,NC,28803,40000,3,2.0,Asheville,980,,1987,1385,41,,Sold,,,http://www.redfin.com/NC/Asheville/30-Rainbow-Hill-Dr-28803/home/102036282,NCMMLS,NCM559822,N,Y,35.5488066,-82.4944906
PAST SALE,April-20-2015,Condo/Co-op,15 Cedarcliff Cir,Asheville,NC,28803,253000,3,3.0,Laurel Creek,1965,,1988,1088,129,291,Sold,,,http://www.redfin.com/NC/Asheville/15-Cedarcliff-Cir-28803/home/102037992,NCMMLS,NCM577269,N,Y,35.5526892,-82.4826154
PAST SALE,October-21-2015,Single Family Residential,14 PARKWAY Loop,Asheville,NC,28803,198850,3,2.0,Asheville,1232,13068,1986,904,161,,Sold,,,http://www.redfin.com/NC/Asheville/14-Parkway-Loop-28803/home/102040376,CMLS,NCM588249,N,Y,35.5517437,-82.4909695
PAST SALE,December-16-2013,Condo/Co-op,36 Cedarcliff Cir,Asheville,NC,28803,224400,2,2.0,Laurel Creek,1737,,1989,1578,129,249,Sold,,,http://www.redfin.com/NC/Asheville/36-Cedarcliff-Cir-28803/home/102041084,NCMMLS,NCM520223,N,Y,35.5530533,-82.4823193
PAST SALE,May-14-2015,Condo/Co-op,7 Laurel Pl,Asheville,NC,28803,263000,3,2.0,Laurel Creek,1900,,1985,1064,138,270,Sold,,,http://www.redfin.com/NC/Asheville/7-Laurel-Place-Dr-28803/home/102042518,NCMMLS,NCM578482,N,Y,35.5540255,-82.4829108
PAST SALE,September-6-2013,Single Family Residential,20 Bee Ridge Rd,Asheville,NC,28803,267900,3,3.0,Asheville,2868,,1986,1679,93,,Sold,,,http://www.redfin.com/NC/Asheville/20-Bee-Ridge-Rd-28803/home/102044858,NCMMLS,NCM543475,N,Y,35.5533762,-82.4885163
PAST SALE,April-29-2013,Single Family Residential,75 LAUREL CREEK Dr,Asheville,NC,28803,408000,4,4.0,Asheville,2855,20037,1989,1809,143,68,Sold,,,http://www.redfin.com/NC/Asheville/75-Laurel-Creek-Dr-28803/home/102046085,CMLS,NCM534575,N,Y,35.551944,-82.4856611
PAST SALE,September-15-2016,Single Family Residential,42 Winterwind Dr,Asheville,NC,28803,225000,3,2.5,Asheville,1809,3484,2008,574,124,80,Sold,,,http://www.redfin.com/NC/Asheville/42-Winterwind-Dr-28803/home/102046218,CMLS,3173833,N,Y,35.5544713,-82.477115
PAST SALE,September-30-2014,Single Family Residential,257 Bee Ridge Rd,Asheville,NC,28803,150007,2,1.0,Asheville,1232,,1985,1290,122,,Sold,,,http://www.redfin.com/NC/Asheville/257-Bee-Ridge-Rd-28803/home/102048528,NCMMLS,NCM569399,N,Y,35.5388644,-82.4872685
PAST SALE,July-27-2015,Vacant Land,99999 Rose Hill Rd,Asheville,NC,28803,200000,,,Asheville,,283575,,990,,,Sold,,,http://www.redfin.com/NC/Asheville/99999-Rose-Hill-Rd-28803/home/102059988,CMLS,NCM582375,N,Y,35.552469,-82.481213
PAST SALE,November-25-2014,Vacant Land,245 Rose Hl,Asheville,NC,28803,37500,0,,Asheville,,,,1234,,,Sold,,,http://www.redfin.com/NC/Asheville/245-Rose-Hill-Rd-28803/home/102060569,NCMMLS,NCM570028,N,Y,35.5369023,-82.4830817
PAST SALE,June-13-2016,Single Family Residential,154 Charland Frst #26,Asheville,NC,28803,210000,3,2.0,Charland Forest,1288,22651,1965,668,163,25,Sold,,,http://www.redfin.com/NC/Asheville/154-Charland-Forest-Rd-28803/home/104483464,NCMMLS,3165609,N,Y,35.554736,-82.4868032
PAST SALE,October-24-2016,Condo/Co-op,23 Cedarcliff Cir #23,Asheville,NC,28803,283250,3,3.0,Asheville,1938,6969,1988,535,146,309,Sold,,,http://www.redfin.com/NC/Asheville/23-Cedarcliff-Cir-28803/unit-23/home/108190098,CMLS,3190118,N,Y,35.5515571,-82.4821924
PAST SALE,July-26-2016,Condo/Co-op,37 Cedarcliff Cir,Asheville,NC,28803,270000,3,2.0,Asheville,1815,,1989,625,149,309,Sold,,,http://www.redfin.com/NC/Asheville/37-Cedarcliff-Cir-28803/home/108235244,CMLS,3191592,N,Y,35.552615,-82.4821078
PAST SALE,July-22-2016,Single Family Residential,45 Avondale Heights Rd,Asheville,NC,28803,229000,3,2.0,Asheville,1782,37897,1980,629,129,12,Sold,,,http://www.redfin.com/NC/Asheville/45-Avondale-Heights-Rd-28803/home/110989094,CMLS,3187891,N,Y,35.5474421,-82.4932324
PAST SALE,February-24-2012,Single Family Residential,28 BEE RIDGE Rd,Asheville,NC,28803,264500,3,3.0,Asheville,2927,14810,1986,2239,90,,Sold,,,http://www.redfin.com/NC/Asheville/28-Bee-Ridge-Rd-28803/home/111206132,CMLS,NCM486615,N,Y,35.5530109,-82.4884528
PAST SALE,September-15-2015,Single Family Residential,1 Reynolda Dr,Asheville,NC,28803,261500,4,2.5,Asheville,1911,17859,1978,940,137,,Sold,,,http://www.redfin.com/NC/Asheville/1-Reynolda-Dr-28803/home/102038047,CMLS,NCM589907,N,Y,35.548663,-82.47978
PAST SALE,March-25-2015,Single Family Residential,32 Cedar Trl,Asheville,NC,28803,218000,3,2.0,The Woods,1780,,1986,1114,122,,Sold,,,http://www.redfin.com/NC/Asheville/32-Cedar-Trl-28803/home/102050914,NCMMLS,NCM569857,N,Y,35.551487,-82.4802431
PAST SALE,April-5-2012,Single Family Residential,26 MADELYN Ln,Fairview,NC,28730,339000,3,4.5,Fairview,3972,26136,2001,2198,85,,Sold,,,http://www.redfin.com/NC/Fairview/26-Madelyn-Ln-28730/home/111005017,CMLS,NCM480863,N,Y,35.5208051,-82.4240163
PAST SALE,October-26-2016,Single Family Residential,15 Winding Way,Fairview,NC,28730,280000,3,3.0,Fairview,1955,34848,1942,533,143,,Sold,,,http://www.redfin.com/NC/Fairview/15-Winding-Way-28730/home/108550940,CMLS,3199041,N,Y,35.5232856,-82.4296602
PAST SALE,June-24-2016,Single Family Residential,11 Windsong Dr,Fairview,NC,28730,460000,4,3.0,Fairview,3427,41382,1989,657,134,33,Sold,,,http://www.redfin.com/NC/Fairview/11-Windsong-Dr-28730/home/102027663,CMLS,3160218,N,Y,35.535526,-82.438103
PAST SALE,July-15-2015,Single Family Residential,91 Great Oak Ln,Fairview,NC,28730,885000,4,3.5,Fairview,4941,435600,2001,1002,179,,Sold,,,http://www.redfin.com/NC/Fairview/91-Great-Oak-Ln-28730/home/102036368,CMLS,NCM578985,N,Y,35.5346097,-82.4497866
PAST SALE,March-8-2013,Single Family Residential,5 Wyoke Rd,Fletcher,NC,28732,212500,3,3.0,Fletcher,2630,98881,1972,1861,81,,Sold,,,http://www.redfin.com/NC/Fletcher/5-Wyoke-Rd-28732/home/102035808,CMLS,NCM529030,N,Y,35.485203,-82.450997
PAST SALE,December-20-2013,Single Family Residential,18 Manningfield Dr,Fletcher,NC,28732,579000,5,6.0,Manningfield,5044,,2002,1574,115,,Sold,,,http://www.redfin.com/NC/Fletcher/18-Manningfield-Dr-28732/home/102042398,NCMMLS,NCM542685,N,Y,35.51237,-82.445451
PAST SALE,September-2-2016,Single Family Residential,38 Windsong Dr,Fairview,NC,28730,385000,3,3.0,Fairview,2727,28749,1991,587,141,400,Sold,,,http://www.redfin.com/NC/Fairview/38-Windsong-Dr-28730/home/102028673,CMLS,NCM586269,N,Y,35.533237,-82.44036
PAST SALE,November-14-2016,Single Family Residential,65 Old Gap Creek Rd,Fairview,NC,28730,296000,2,2.5,Fairview,1716,33976,2008,514,172,,Sold,,,http://www.redfin.com/NC/Fairview/65-Old-Gap-Creek-Rd-28730/home/102040876,CMLS,3217116,N,Y,35.523244,-82.426494
PAST SALE,April-20-2012,Single Family Residential,107 WINDSONG DRIVE Ext,Fairview,NC,28730,650000,4,4.5,Fairview,5020,88862,1997,2183,129,350,Sold,,,http://www.redfin.com/NC/FAIRVIEW/107-WINDSONG-DR-EXT-28730/home/110882707,CMLS,NCM491180,N,Y,35.535507,-82.436519
PAST SALE,June-13-2014,Single Family Residential,143 Sharon Ridge Ct,Fairview,NC,28730,250000,3,3.0,Sharon Ridge Estates,2144,,2008,1399,117,,Sold,,,http://www.redfin.com/NC/Fairview/143-Sharon-Ridge-Ct-28730/home/102043629,NCMMLS,NCM545060,N,Y,35.514941,-82.42718
PAST SALE,July-30-2013,Single Family Residential,62 WILLOW FARM Rd,Fairview,NC,28730,705000,4,4.5,Fairview,3910,57499,2006,1717,180,1437,Sold,,,http://www.redfin.com/NC/Fairview/62-Willow-Farm-Rd-28730/home/102044831,CMLS,NCM533570,N,Y,35.530115,-82.432606
PAST SALE,June-24-2016,Single Family Residential,11 Graylyn Dr,Fairview,NC,28730,390000,4,4.5,Fairview,4718,91040,2008,657,83,300,Sold,,,http://www.redfin.com/NC/Fairview/11-Graylyn-Dr-28730/home/102073676,CMLS,3152189,N,Y,35.5339669,-82.4365849
PAST SALE,August-1-2014,Vacant Land,LOT 9 Greenlaurel Trl #9,Fletcher,NC,28732,150000,0,,Bridgewater,,,,1350,,692,Sold,,,http://www.redfin.com/NC/Fletcher/9-Green-Laurel-Trl-28732/unit-9/home/102060829,NCMMLS,NCM516075,N,Y,35.5040661,-82.4305126
PAST SALE,June-1-2016,Vacant Land,0 Ducketts Grove Rd #3,Fletcher,NC,28732,52500,,,Fletcher,,38855,,680,,,Sold,,,http://www.redfin.com/NC/Fletcher/3-Duckett-s-Grove-Rd-28732/unit-3/home/145051680,CMLS,3128276,N,Y,35.502539,-82.444334
PAST SALE,April-19-2012,Vacant Land,94 BRIDGEWATER Dr #37,Fletcher,NC,28732,72000,,,Fletcher,,36154,,2184,,,Sold,,,http://www.redfin.com/NC/Fletcher/94-Bridgewater-Dr-28732/unit-37/home/145052381,CMLS,NCM484589,N,Y,35.500861,-82.4302825
PAST SALE,May-15-2013,Vacant Land,7 GREENLAUREL Trl #6,Fletcher,NC,28732,82500,,,Fletcher,,57934,,1793,,,Sold,,,http://www.redfin.com/NC/Fletcher/7-Green-Laurel-Trl-28732/unit-6/home/102060622,CMLS,NCM484609,N,Y,35.5043413,-82.4302256
PAST SALE,March-14-2017,Vacant Land,43 Lone Coyote Rdg Unit B-3,Fletcher,NC,28732,42000,,,Fletcher,,52707,,394,,,Sold,,,http://www.redfin.com/NC/Fletcher/43-Lone-Coyote-Rdg-28732/unit-B-3/home/109060180,CMLS,3217623,N,Y,35.518821,-82.4332809
PAST SALE,June-23-2016,Vacant Land,0 Webb Creek Rd,Fairview,NC,28730,65500,,,Fairview,,65340,,658,,,Sold,,,http://www.redfin.com/NC/Fairview/0-Webb-Creek-Rd-28730/home/145054644,CMLS,NCM581079,N,Y,35.5166876,-82.4434144
PAST SALE,August-6-2015,Vacant Land,105 Glen Trillium Dr,Fletcher,NC,28732,60000,,,Fletcher,,46609,,980,,,Sold,,,http://www.redfin.com/NC/Fletcher/105-Glen-Trillium-Dr-28732/home/102060000,CMLS,NCM586968,N,Y,35.503831,-82.449768
PAST SALE,February-27-2015,Vacant Land,LOT 22 Swetgum Hl,Fletcher,NC,28732,97500,0,,Bridgewater,,,,1140,,690,Sold,,,http://www.redfin.com/NC/Fletcher/22-Sweet-Gum-Hl-28732/home/102061504,NCMMLS,NCM565114,N,Y,35.5022983,-82.4307365
PAST SALE,April-11-2016,Single Family Residential,1194 Charlotte Hwy,Fairview,NC,28730,200000,2,1.0,Fairview,1305,78408,1953,731,153,,Sold,,,http://www.redfin.com/NC/Fairview/1194-Charlotte-Hwy-28730/home/102026969,CMLS,NCM585282,N,Y,35.5256028,-82.423537
PAST SALE,August-15-2013,Single Family Residential,28 Meadow Brook Dr,Fletcher,NC,28732,375000,4,4.0,Meadow Wood,3248,,1993,1701,115,100,Sold,,,http://www.redfin.com/NC/Fletcher/28-Meadowbrook-Dr-28732/home/102043025,NCMMLS,NCM543815,N,Y,35.5119766,-82.4354329
PAST SALE,May-30-2014,Single Family Residential,1 Briarwood Ln,Fletcher,NC,28732,222500,3,2.0,Briarwood,1690,,1985,1413,132,,Sold,,,http://www.redfin.com/NC/Fletcher/1-Briarwood-Ln-28732/home/102046973,NCMMLS,NCM556411,N,Y,35.506014,-82.4414013
PAST SALE,July-22-2016,Single Family Residential,15 Meadow Brook Dr,Fletcher,NC,28732,259900,3,2.5,Fletcher,1836,42253,1993,629,142,8,Sold,,,http://www.redfin.com/NC/Fletcher/15-Meadowbrook-Dr-28732/home/105535834,CMLS,3177758,N,Y,35.5140207,-82.4375071
PAST SALE,February-8-2017,Single Family Residential,6 Briarwood Ln,Fletcher,NC,28732,222500,3,2.0,Fletcher,1612,27007,1989,428,138,,Sold,,,http://www.redfin.com/NC/Fletcher/6-Briarwood-Ln-28732/home/109270902,CMLS,3221499,N,Y,35.5054877,-82.4404701
PAST SALE,September-30-2015,Single Family Residential,203 GREEN MEADOWS Ln,Fletcher,NC,28732,485500,4,4.0,Fletcher,3844,49658,1998,925,126,,Sold,,,http://www.redfin.com/NC/Fletcher/203-Greens-Meadow-Ln-28732/home/110867632,CMLS,NCM590971,N,Y,35.496966,-82.449155
PAST SALE,March-9-2012,Single Family Residential,10 MEADOW BROOK Dr,Fletcher,NC,28732,368500,4,3.5,Fletcher,3625,41382,1997,2225,102,100,Sold,,,http://www.redfin.com/NC/Fletcher/10-Meadowbrook-Dr-28732/home/111087470,CMLS,NCM491422,N,Y,35.5127554,-82.4369991
PAST SALE,June-30-2014,Single Family Residential,211 Bee Ridge Rd,Asheville,NC,28803,340000,3,2.0,Asheville,2397,,1965,1382,142,,Sold,,,http://www.redfin.com/NC/Asheville/211-Bee-Ridge-Rd-28803/home/102036655,NCMMLS,NCM557892,N,Y,35.541951,-82.486433
PAST SALE,June-7-2016,Single Family Residential,12 Laurel Place Dr,Asheville,NC,28803,245000,2,2.0,Asheville,1406,5662,1985,674,174,284,Sold,,,http://www.redfin.com/NC/Asheville/12-Laurel-Place-Dr-28803/home/104481494,CMLS,3163408,N,Y,35.5535368,-82.4825731
PAST SALE,July-10-2013,Single Family Residential,162 Mount Royal Dr,Arden,NC,28704,201000,3,2.5,Arden,1664,29620,1985,1737,121,,Sold,,,http://www.redfin.com/NC/Arden/162-Mount-Royal-Dr-28704/home/102033168,CMLS,NCM538706,N,Y,35.4795657,-82.5042706
PAST SALE,August-11-2016,Single Family Residential,113 Rathfarnham Cir,Asheville,NC,28803,575000,4,3.5,Asheville,3357,97138,1901,609,171,,Sold,,,http://www.redfin.com/NC/Asheville/113-Rathfarnham-Cir-28803/home/104498291,CMLS,3165202,N,Y,35.4859191,-82.5147573
PAST SALE,October-1-2012,Vacant Land,23 BRIDGEWATER Dr #3,Fletcher,NC,28732,365000,,,Fletcher,,212572,,2019,,692,Sold,,,http://www.redfin.com/NC/Fletcher/23-Bridgewater-Dr-28732/unit-3/home/145050829,CMLS,NCM516077,N,Y,35.503087,-82.4295689
PAST SALE,August-27-2013,Vacant Land,4 Willowside Ct,Fairview,NC,28730,80000,0,,The Willows,,,,1689,,1437,Sold,,,http://www.redfin.com/NC/Fairview/4-Willow-Side-Ct-28730/home/102059503,NCMMLS,NCM541896,N,Y,35.5298413,-82.4336674
PAST SALE,February-27-2014,Single Family Residential,4 Meadow Wood Trl,Fletcher,NC,28732,365000,3,3.0,Meadow Wood,2518,,1993,1505,145,100,Sold,,,http://www.redfin.com/NC/Fletcher/4-Meadow-Wood-Trl-28732/home/102032314,NCMMLS,NCM551066,N,Y,35.5096905,-82.4383113
PAST SALE,January-17-2014,Single Family Residential,3 Briarwood Ln,Fletcher,NC,28732,207000,3,2.0,Briarwood,1341,,1984,1546,154,,Sold,,,http://www.redfin.com/NC/Fletcher/3-Briarwood-Ln-28732/home/102050648,NCMMLS,NCM550087,N,Y,35.5059795,-82.440851
PAST SALE,September-21-2016,Single Family Residential,6 Meadowbrook Dr,Fletcher,NC,28732,387000,3,3.5,Fletcher,2614,34848,1992,568,148,8,Sold,,,http://www.redfin.com/NC/Fletcher/6-Meadowbrook-Dr-28732/home/105491224,CMLS,3174079,N,Y,35.512378,-82.4370838
PAST SALE,June-26-2014,Single Family Residential,72 Drakes Meadow Ln,Arden,NC,28704,425000,4,3.0,Drakes Meadow,3118,,2006,1386,136,,Sold,,,http://www.redfin.com/NC/Arden/72-Drakes-Meadow-Ln-28704/home/102031440,NCMMLS,NCM547499,N,Y,35.476869,-82.48307
PAST SALE,July-19-2013,Single Family Residential,556 MILLS GAP Rd,Arden,NC,28704,196000,3,2.0,Arden,1900,34848,1937,1728,103,,Sold,,,http://www.redfin.com/NC/Arden/556-Mills-Gap-Rd-28704/home/102040491,CMLS,NCM533158,N,Y,35.4736805,-82.4844411
PAST SALE,October-11-2013,Condo/Co-op,104 Silverrod,Asheville,NC,28803,365000,4,3.0,Southside Village,2583,,1999,1644,141,181,Sold,,,http://www.redfin.com/NC/Asheville/104-Silver-Rod-Ln-28803/home/102043602,NCMMLS,NCM543753,N,Y,35.4917305,-82.5079707
PAST SALE,May-19-2015,Single Family Residential,208 Weston Rd,Arden,NC,28704,61240,1,1.0,Arden,600,4356,1960,1059,102,,Sold,,,http://www.redfin.com/NC/Arden/208-Weston-Rd-28704/home/102049995,CMLS,NCM565575,N,Y,35.4726366,-82.503872
PAST SALE,May-6-2016,Single Family Residential,145 Chestnut Pl,Arden,NC,28704,125000,2,1.0,Arden,765,10018,1955,706,163,,Sold,,,http://www.redfin.com/NC/Arden/145-Chestnut-Pl-28704/home/104205873,CMLS,3156561,N,Y,35.4747993,-82.5049472
PAST SALE,June-29-2016,Single Family Residential,217 Saint Johns St,Arden,NC,28704,253000,3,2.5,Arden,2272,11325,2005,652,111,,Sold,,,http://www.redfin.com/NC/Arden/217-Saint-Johns-St-28704/home/104521793,CMLS,3168032,N,Y,35.4708893,-82.5016063
PAST SALE,June-24-2016,Single Family Residential,7 Pinehurst #13,Arden,NC,28704,175000,3,2.0,Mountain View,1510,15681,1968,657,116,,Sold,,,http://www.redfin.com/NC/Arden/7-Pinehurst-Cir-28704/home/105536429,NCMMLS,3177836,N,Y,35.4746653,-82.4986882
PAST SALE,October-25-2016,Condo/Co-op,101 Poppy #101,Asheville,NC,28803,299333,3,3.0,Southside Village,1912,2178,1999,534,157,195,Sold,,,http://www.redfin.com/NC/Asheville/101-Poppy-Ln-28803/home/105707999,NCMMLS,3181676,N,Y,35.4929092,-82.5087953
PAST SALE,November-21-2016,Condo/Co-op,102 Silverrod #102,Asheville,NC,28803,326500,4,3.0,Southside Village,2581,2178,1999,507,127,203,Sold,,,http://www.redfin.com/NC/Asheville/102-Silver-Rod-Ln-28803/home/109228986,NCMMLS,3217562,N,Y,35.4918808,-82.5079918
PAST SALE,August-24-2012,Single Family Residential,177 Oak Ter,Arden,NC,28704,104500,2,1.0,Arden,879,7405,1961,2057,119,,Sold,,,http://www.redfin.com/NC/Arden/177-Oak-Ter-28704/home/111202179,CMLS,NCM519005,N,Y,35.4736298,-82.5039322
PAST SALE,June-27-2017,Single Family Residential,202 Birch Ln,Arden,NC,28704,200000,3,2.0,Arden,1608,13939,1963,289,124,,Sold,,,http://www.redfin.com/NC/Arden/202-Birch-Ln-28704/home/104310869,CMLS,3267116,N,Y,35.4792016,-82.5172296
PAST SALE,August-24-2017,Single Family Residential,119 Coachmans Trl,Asheville,NC,28803,352838,4,2.5,Asheville,2557,19166,1996,231,138,33,Sold,,,http://www.redfin.com/NC/Asheville/119-Coachmans-Trl-28803/home/111270521,CMLS,3299074,N,Y,35.5573539,-82.492435
PAST SALE,April-13-2017,Single Family Residential,130 Coachmans Trl,Asheville,NC,28803,391415,4,2.5,Asheville,3683,16117,1996,364,106,23,Sold,,,http://www.redfin.com/NC/Asheville/130-Coachmans-Trl-28803/home/111259106,CMLS,3247262,N,Y,35.557219,-82.490787
PAST SALE,June-15-2012,Single Family Residential,10 Wood Rd,Arden,NC,28704,132065,3,3.0,Arden,1545,12632,1979,2127,85,,Sold,,,http://www.redfin.com/NC/Arden/10-Wood-Rd-28704/home/110854265,CMLS,NCM515459,N,Y,35.4830904,-82.5137425
PAST SALE,January-30-2015,Condo/Co-op,1 Cedarwood Dr,Asheville,NC,28803,128000,2,2.0,Asheville,1152,,1982,1168,111,185,Sold,,,http://www.redfin.com/NC/Asheville/1-Cedarwood-Dr-28803/unit-B/home/111145988,CMLS,NCM567785,N,Y,35.555977,-82.481357
PAST SALE,September-27-2013,Single Family Residential,46 Fiver Ln,Asheville,NC,28803,391000,3,4.0,Pinners Cove,3200,,1998,1658,122,,Sold,,,http://www.redfin.com/NC/Asheville/46-Fiver-Ln-28803/home/102034265,NCMMLS,NCM537228,N,Y,35.510529,-82.493011
PAST SALE,December-10-2012,Single Family Residential,82 Gap Creek Rd,Fairview,NC,28732,330000,5,4.0,Fairview,4809,51836,1937,1949,69,,Sold,,,http://www.redfin.com/NC/Fletcher/82-Gap-Creek-Rd-28732/home/102047475,CMLS,NCM523415,N,Y,35.5185643,-82.4359485
PAST SALE,January-27-2015,Single Family Residential,119 Distant View Dr,Asheville,NC,28803,575000,4,4.0,The Views Of Asheville,2750,,2006,1171,209,400,Sold,,,http://www.redfin.com/NC/Asheville/119-Distant-View-Dr-28803/home/102043737,NCMMLS,NCM574229,N,Y,35.5103719,-82.506264
PAST SALE,August-26-2015,Single Family Residential,5 Creekside Ct,Asheville,NC,28803,260000,3,2.0,Asheville,1603,10018,1987,960,162,56,Sold,,,http://www.redfin.com/NC/Asheville/5-Creekside-Ln-28803/home/102036747,CMLS,NCM579078,N,Y,35.5533,-82.483564
PAST SALE,March-21-2014,Single Family Residential,6 Indian Ridge Rd,Asheville,NC,28803,463000,3,3.0,Indian Falls Estates,3366,,1989,1483,138,,Sold,,,http://www.redfin.com/NC/Asheville/6-Indian-Ridge-Rd-28803/home/102041557,NCMMLS,NCM552303,N,Y,35.525399,-82.479744
PAST SALE,May-5-2014,Single Family Residential,9 Reynolda Dr,Asheville,NC,28803,211000,3,2.0,The Woods,1701,,1979,1438,124,,Sold,,,http://www.redfin.com/NC/Asheville/9-Reynolda-Dr-28803/home/102038625,NCMMLS,NCM558296,N,Y,35.549179,-82.4791599
PAST SALE,June-30-2014,Single Family Residential,17 Reynolds School Rd,Asheville,NC,28803,65000,3,1.0,Asheville,,,,1382,,,Sold,,,http://www.redfin.com/NC/Asheville/17-Reynolds-School-Rd-28803/home/102045675,NCMMLS,NCM544741,N,Y,35.546212,-82.479
PAST SALE,May-28-2014,Vacant Land,58 Cedar Mountain Rd,Asheville,NC,28803,26000,0,,Asheville,,,,1415,,,Sold,,,http://www.redfin.com/NC/Asheville/58-Cedar-Mountain-Rd-28803/home/102060907,NCMMLS,NCM553142,N,Y,35.54383,-82.46126
PAST SALE,March-14-2017,Vacant Land,0 Cassidy Ln,Asheville,NC,28805,60000,,,Asheville,,108900,,394,,,Sold,,,http://www.redfin.com/NC/Asheville/0-Cassidy-Ln-28803/home/103952097,CMLS,3182089,N,Y,35.5286837,-82.4930285
PAST SALE,January-21-2016,Single Family Residential,7 Mountain View Ln,Fletcher,NC,28732,325000,3,2.5,Fletcher,2713,24393,1999,812,120,,Sold,,,http://www.redfin.com/NC/Fletcher/7-Mountain-View-Ln-28732/home/102026668,CMLS,NCM593850,N,Y,35.5126119,-82.4360679
PAST SALE,January-28-2016,Single Family Residential,11 Laurel Summit Dr,Asheville,NC,28803,310000,3,2.0,Asheville,2300,20473,1987,805,135,84,Sold,,,http://www.redfin.com/NC/Asheville/11-Laurel-Smt-28803/home/102027624,CMLS,NCM592728,N,Y,35.5503557,-82.4840537
PAST SALE,November-4-2015,Single Family Residential,457 BARRINGTON Dr,Asheville,NC,28803,904900,3,3.5,Asheville,3981,57063,2014,890,227,1800,Sold,,,http://www.redfin.com/NC/Asheville/457-Barrington-Dr-28803/home/102048236,CMLS,NCM571368,N,Y,35.5149402,-82.4803946
PAST SALE,October-6-2017,Single Family Residential,161 Royal Pines Dr #20,Arden,NC,28704,90000,2,1.0,Arden,,8276,1954,188,,,Sold,,,http://www.redfin.com/NC/Arden/161-Royal-Pines-Dr-28704/unit-20/home/143644671,CMLS,3317449,N,Y,35.475462,-82.516516
PAST SALE,March-20-2017,Single Family Residential,6 Bethel Dr,Asheville,NC,28803,300000,3,2.5,Asheville,2731,33976,1992,388,110,33,Sold,,,http://www.redfin.com/NC/Asheville/6-Bethel-Dr-28803/home/109229740,CMLS,3215362,N,Y,35.493975,-82.494041
PAST SALE,August-30-2017,Mobile/Manufactured Home,82 Laurel Loop Dr #6,Fletcher,NC,28732,84000,3,2.0,Fletcher,1420,31798,2006,225,59,,Sold,,,http://www.redfin.com/NC/Fletcher/82-Laurel-Loop-Rd-28732/unit-6/home/145043140,CMLS,3286182,N,Y,35.4980516,-82.4303397
PAST SALE,September-18-2017,Single Family Residential,59 Willow Farm Rd,Fairview,NC,28730,680000,4,4.5,Fairview,4614,36154,2006,206,147,120,Sold,,,http://www.redfin.com/NC/Fairview/59-Willow-Farm-Rd-28730/home/102029424,CMLS,3315629,N,Y,35.5306889,-82.4330835
PAST SALE,October-16-2017,Single Family Residential,159 Chestnut Pl,Arden,NC,28704,130000,3,2.0,Arden,1152,6534,1963,178,113,,Sold,,,http://www.redfin.com/NC/Arden/159-Chestnut-Pl-28704/home/111165794,CMLS,3293548,N,Y,35.4741237,-82.5050317
PAST SALE,June-29-2017,Single Family Residential,204 Oak Ter,Arden,NC,28704,221000,2,1.5,Arden,1248,13503,1970,287,177,,Sold,,,http://www.redfin.com/NC/Arden/204-Oak-Ter-28704/home/111283062,CMLS,3283842,N,Y,35.4715467,-82.5046511
PAST SALE,July-30-2014,Single Family Residential,17 Maple,Arden,NC,28704,145000,3,2.0,Arden,1144,,2007,1352,127,,Sold,,,http://www.redfin.com/NC/Arden/17-Maple-Ter-28704/home/102037354,NCMMLS,NCM560022,N,Y,35.477392,-82.510889
PAST SALE,December-23-2013,Vacant Land,Lot #8 Laurel Dr #8,Arden,NC,28704,5000,0,,High Vista Country C,,,,1571,,550,Sold,,,http://www.redfin.com/NC/Arden/8-Laurel-Rd-28704/home/102058230,NCMMLS,NCM478483,N,Y,35.475474,-82.511828
PAST SALE,April-28-2016,Single Family Residential,6 Muirfield Lot 8,Arden,NC,28704,325000,3,4.0,Muirfield,2702,,1997,714,120,,Sold,,,http://www.redfin.com/NC/Arden/6-Muirfield-Dr-28704/home/104044035,NCMMLS,3154499,N,Y,35.477863,-82.499707
PAST SALE,March-6-2014,Condo/Co-op,147 Colony Dr,Arden,NC,28704,96500,3,2.0,The Colony,1248,,1973,1498,77,180,Sold,,,http://www.redfin.com/NC/Arden/147-Colony-Dr-28704/home/102032164,NCMMLS,NCM547394,N,Y,35.470738,-82.514107
PAST SALE,September-5-2013,Condo/Co-op,107 Colony Dr,Asheville,NC,28704,86500,2,2.0,Asheville,1100,,1973,1680,79,180,Sold,,,http://www.redfin.com/NC/Arden/107-Colony-Dr-28704/home/102046278,NCMMLS,NCM534620,N,Y,35.471105,-82.513527
PAST SALE,February-26-2016,Single Family Residential,24 Saint Andrews Rd,Arden,NC,28704,165000,3,2.0,Saint Andrews,1562,,1974,776,106,,Sold,,,http://www.redfin.com/NC/Arden/99999-Saint-Andrews-Rd-28704/home/102030016,NCMMLS,NCM580362,N,Y,35.481634,-82.4992224
PAST SALE,December-6-2013,Single Family Residential,14 Maybury Ct,Arden,NC,28704,272000,3,3.0,Muirfield,2234,,1977,1588,122,25,Sold,,,http://www.redfin.com/NC/Arden/14-Maybury-Ct-28704/home/102050208,NCMMLS,NCM549143,N,Y,35.478445,-82.500378
PAST SALE,October-3-2016,Single Family Residential,436 Mills Gap Rd,Arden,NC,28704,281900,3,3.5,Arden,2870,58806,2003,556,98,,Sold,,,http://www.redfin.com/NC/Arden/436-Mills-Gap-Rd-28704/home/108571675,CMLS,3207219,N,Y,35.484463,-82.4903719
PAST SALE,August-1-2016,Single Family Residential,19 Maple St #15,Fletcher,NC,28732,410000,4,4.0,Fletcher,3144,45738,1996,619,130,,Sold,,,http://www.redfin.com/NC/Fletcher/19-Maple-St-28732/unit-15/home/145019676,CMLS,3187189,N,Y,35.473931,-82.47855
PAST SALE,November-3-2014,Single Family Residential,141 Laurel Rd,Arden,NC,28704,172000,3,3.0,Royal Pines,1664,,1977,1256,103,,Sold,,,http://www.redfin.com/NC/Arden/141-Laurel-Rd-28704/home/102049148,NCMMLS,NCM567637,N,Y,35.478955,-82.510489
PAST SALE,September-28-2016,Single Family Residential,25 Glen Crest Dr,Arden,NC,28704,359500,3,2.5,Arden,2519,17859,1986,561,143,,Sold,,,http://www.redfin.com/NC/Arden/25-Glen-Crest-Dr-28704/home/108301966,CMLS,3195883,N,Y,35.47564,-82.494442
PAST SALE,August-24-2016,Single Family Residential,14 Four Oaks Dr,Arden,NC,28704,390000,4,3.0,Arden,2720,37461,1994,596,143,17,Sold,,,http://www.redfin.com/NC/Arden/14-4-Oaks-Dr-28704/home/104377196,CMLS,3163135,N,Y,35.482079,-82.485697
PAST SALE,May-12-2016,Townhouse,104 Southway Garden Rd #104,Arden,NC,28704,97500,2,1.5,Arden,1056,871,1974,700,92,170,Sold,,,http://www.redfin.com/NC/Arden/104-Southway-Garden-Rd-28704/unit-104/home/145023127,CMLS,3158646,N,Y,35.4837688,-82.5178039
PAST SALE,September-23-2016,Single Family Residential,3 Weston Ln,Arden,NC,28704,230000,2,2.0,Arden,1612,26571,1989,566,143,,Sold,,,http://www.redfin.com/NC/Arden/3-Weston-Ln-28704/home/108565105,CMLS,3206494,N,Y,35.477016,-82.50102
PAST SALE,May-20-2016,Single Family Residential,376 S Mills Gap Rd E,Asheville,NC,28803,62000,3,1.0,Asheville,1607,31798,1970,692,39,,Sold,,,http://www.redfin.com/NC/Asheville/376-Mills-Gap-Rd-28803/home/102030100,CMLS,3119519,N,Y,35.486519,-82.495129
PAST SALE,April-30-2012,Single Family Residential,405 Royal Pines Dr,Arden,NC,28704,121000,2,1.0,Arden,900,8276,1960,2173,134,,Sold,,,http://www.redfin.com/NC/Arden/405-Royal-Pines-Dr-28704/home/111189829,CMLS,NCM510102,N,Y,35.475977,-82.508171
PAST SALE,July-14-2016,Single Family Residential,202 Bridgeman Dr S #17,Asheville,NC,28803,530000,4,3.5,Asheville,3300,41817,2006,637,161,67,Sold,,,http://www.redfin.com/NC/Asheville/202-Bridgeman-Way-28803/unit-17/home/145029064,CMLS,3165498,N,Y,35.5048333,-82.4932747
PAST SALE,October-29-2015,Single Family Residential,1 Shelby Dr,Asheville,NC,28803,280000,3,2.0,Asheville,2138,19602,2006,896,131,,Sold,,,http://www.redfin.com/NC/Asheville/1-Shelby-Dr-28803/home/102035081,CMLS,NCM585355,N,Y,35.50114,-82.496622
PAST SALE,August-16-2012,Single Family Residential,1 FOREST Run,Asheville,NC,28803,175000,3,3.0,Asheville,2184,30927,1979,2065,80,,Sold,,,http://www.redfin.com/NC/Asheville/1-Forest-Run-Dr-28803/home/111247579,CMLS,NCM513846,N,Y,35.4997169,-82.495509
PAST SALE,September-14-2015,Single Family Residential,32 Glen Crest Dr,Arden,NC,28704,325000,3,2.5,Arden,2180,24829,1986,941,149,,Sold,,,http://www.redfin.com/NC/Arden/32-Glen-Crest-Dr-28704/home/102033126,CMLS,NCM589406,N,Y,35.476219,-82.492821
PAST SALE,June-15-2016,Single Family Residential,7 Maybury Ct #58,Arden,NC,28704,260000,3,3.0,Arden,1933,16117,1979,666,135,2,Sold,,,http://www.redfin.com/NC/Arden/7-Maybury-Ct-28704/unit-58/home/145037515,CMLS,3173693,N,Y,35.478568,-82.499519
PAST SALE,July-14-2016,Single Family Residential,106 Williams Rd,Fletcher,NC,28732,773750,4,7.5,Fletcher,10640,326700,1982,637,73,,Sold,,,http://www.redfin.com/NC/Fletcher/106-Williams-Rd-28732/home/102035112,CMLS,3137346,N,Y,35.477037,-82.478544
PAST SALE,June-3-2016,Townhouse,148 Colony Dr #148,Arden,NC,28704,91000,2,1.5,Arden,896,871,1973,678,102,183,Sold,,,http://www.redfin.com/NC/Arden/148-Colony-Dr-28704/unit-148/home/145046308,CMLS,3141410,N,Y,35.470782,-82.514116
PAST SALE,April-16-2015,Single Family Residential,173 Oak Ter,Arden,NC,28704,125000,2,1.0,Royal Pines,616,,1949,1092,203,,Sold,,,http://www.redfin.com/NC/Arden/173-Oak-Ter-28704/home/102042469,NCMMLS,NCM576070,N,Y,35.4737574,-82.5039322
PAST SALE,March-18-2013,Single Family Residential,4 MUIRFIELD Ct,Arden,NC,28704,150000,3,2.0,Arden,1658,13068,1977,1851,90,23,Sold,,,http://www.redfin.com/NC/Arden/4-Muirfield-Ct-28704/home/102050338,CMLS,NCM513092,N,Y,35.4807857,-82.5013111
PAST SALE,March-18-2016,Single Family Residential,193 Weston Rd,Arden,NC,28704,112500,2,1.0,Arden,750,4791,1949,755,150,,Sold,,,http://www.redfin.com/NC/Arden/193-Weston-Rd-28704/home/102233957,CMLS,3133889,N,Y,35.4718042,-82.50537
PAST SALE,October-4-2016,Single Family Residential,248 Saint Johns St,Arden,NC,28704,189500,3,1.5,Arden,1504,13503,1966,555,126,,Sold,,,http://www.redfin.com/NC/Arden/248-Saint-Johns-St-28704/home/107336818,CMLS,3186902,N,Y,35.4728868,-82.4974618
PAST SALE,June-24-2014,Single Family Residential,168 Mount Royal Dr,Arden,NC,28704,235000,4,3.5,Arden,2315,34412,1997,1388,102,,Sold,,,http://www.redfin.com/NC/Arden/168-Mount-Royal-Dr-28704/home/110855029,CMLS,NCM560965,N,Y,35.4803842,-82.5051163
PAST SALE,January-12-2017,Condo/Co-op,136 Colony Dr #136,Arden,NC,28704,84000,1,1.0,Arden,768,1306,1973,455,109,187,Sold,,,http://www.redfin.com/NC/Arden/136-Colony-Dr-28704/unit-136/home/111918702,CMLS,3182969,N,Y,35.4704945,-82.5137425
PAST SALE,July-8-2013,Single Family Residential,60 Thistle Ln,Fletcher,NC,28732,215000,2,2.0,Fletcher,1776,87120,1991,1739,121,,Sold,,,http://www.redfin.com/NC/Fletcher/60-Thistle-Ln-28732/home/102044201,CMLS,NCM535089,N,Y,35.4911437,-82.4380228
PAST SALE,June-28-2016,Single Family Residential,1 Wyoke Rd,Fletcher,NC,28732,290000,3,2.0,Fletcher,1976,54450,1972,653,147,,Sold,,,http://www.redfin.com/NC/Fletcher/1-Wyoke-Rd-28732/home/104241225,CMLS,3159584,N,Y,35.483854,-82.450908
PAST SALE,April-25-2017,Single Family Residential,120 Stonegate Dr,Arden,NC,28704,640000,3,4.5,Arden,5155,58370,1998,352,124,,Sold,,,http://www.redfin.com/NC/ARDEN/120-STONEGATE-DR-28704/home/111251958,CMLS,3253295,N,Y,35.485201,-82.509938
PAST SALE,May-26-2017,Townhouse,406 Southway Garden Rd #406,Arden,NC,28704,107000,2,1.5,Arden,1056,,1974,321,101,170,Sold,,,http://www.redfin.com/NC/Arden/406-Southway-Garden-Rd-28704/unit-406/home/113781330,CMLS,3273793,N,Y,35.4837925,-82.5175305
PAST SALE,August-16-2017,Single Family Residential,26 Crestwood Dr,Arden,NC,28704,373500,3,3.0,Arden,2619,27007,1974,239,143,,Sold,,,http://www.redfin.com/NC/Arden/26-Crestwood-Dr-28704/home/111282906,CMLS,3292713,N,Y,35.4796819,-82.511203
PAST SALE,July-28-2017,Single Family Residential,3 Muirfield Pl #52,Arden,NC,28704,222000,3,2.0,Arden,1280,16552,1977,258,173,2,Sold,,,http://www.redfin.com/NC/Arden/3-Muirfield-Dr-28704/unit-52/home/124086271,CMLS,3250336,N,Y,35.4769999,-82.49972
PAST SALE,May-11-2017,Single Family Residential,536 School Rd E,Asheville,NC,28803,140000,3,2.0,Asheville,1344,49222,1995,336,104,,Sold,,,http://www.redfin.com/NC/Asheville/536-School-Rd-E-28803/home/110935575,CMLS,3250811,N,Y,35.491545,-82.488282
PAST SALE,August-8-2017,Vacant Land,50 Concord Rd Lot 1,Asheville,NC,28803,60000,,,Asheville,,50093,,247,,,Sold,,,http://www.redfin.com/NC/Asheville/50-Concord-Rd-28803/unit-1/home/105521378,CMLS,3229694,N,Y,35.49095,-82.496296
PAST SALE,August-15-2017,Vacant Land,9999 Terra Dr,Arden,NC,28704,55000,,,Arden,,89733,,240,,25,Sold,,,http://www.redfin.com/NC/Arden/9999-Terra-Dr-28704/home/102054786,CMLS,3128454,N,Y,35.484457,-82.495736
PAST SALE,,Single Family Residential,3 Fairway Dr,Arden,NC,28704,294000,4,3.0,,1492,21780,1977,,197,,,,,http://www.redfin.com/NC/Arden/3-Fairway-Dr-28704/home/110807124,,,N,Y,35.482321,-82.4935073
PAST SALE,July-25-2017,Single Family Residential,459 Cedar Ln,Arden,NC,28704,165000,3,1.5,Arden,1137,8712,1962,261,145,,Sold,,,http://www.redfin.com/NC/Arden/459-Cedar-Ln-28704/home/110827981,CMLS,3288726,N,Y,35.4726763,-82.5057083
PAST SALE,June-5-2017,Single Family Residential,29 North Oak Ter,Arden,NC,28704,285000,3,2.0,Arden,1788,30056,1988,311,159,13,Sold,,,http://www.redfin.com/NC/Arden/29-N-Oak-Ter-28704/home/110854391,CMLS,3272845,N,Y,35.4804733,-82.5031288
PAST SALE,May-23-2017,Vacant Land,99999 Willow Farm Dr,Fairview,NC,28730,48600,,,Fairview,,234352,,324,,,Sold,,,http://www.redfin.com/NC/Fairview/99999-Willow-Farm-Rd-28730/home/113384201,CMLS,3171936,N,Y,35.531112,-82.436608
PAST SALE,May-12-2017,Mobile/Manufactured Home,999 Sharon Rdg #11,Fairview,NC,28730,172000,3,2.0,Sharon Ridge Estates,1455,27007,2017,335,118,,Sold,,,http://www.redfin.com/NC/Fairview/1199-Sharon-Ridge-Ct-28730/unit-11/home/109310681,NCMMLS,3223057,N,Y,35.5150372,-82.426123
PAST SALE,,Vacant Land,99999 Sedgewood Ct,Fairview,NC,28730,89000,,,,,97574,,,,,,,,http://www.redfin.com/NC/Fairview/99999-Sedgewood-Ct-28730/home/110803139,,,N,Y,35.5210464,-82.4412442
PAST SALE,,Single Family Residential,14 Fairview Hills Dr,Fairview,NC,28730,285000,3,2.0,,1536,18731,1991,,186,,,,,http://www.redfin.com/NC/Fairview/14-Fairview-Hills-Dr-28730/home/111182923,,,N,Y,35.5336693,-82.434163
PAST SALE,October-22-2013,Single Family Residential,23 Sterling Run,Fletcher,NC,28732,385000,4,4.0,Sterling,3700,,2006,1633,104,35,Sold,,,http://www.redfin.com/NC/Fletcher/23-Sterling-Run-Dr-28732/home/102043164,NCMMLS,NCM519793,N,Y,35.47904,-82.48171
PAST SALE,January-9-2017,Vacant Land,106 Windcliff Dr #96,Asheville,NC,28803,445000,,,Asheville,,193842,,458,,1800,Sold,,,http://www.redfin.com/NC/Asheville/106-Windcliff-Dr-28803/unit-96/home/111918902,CMLS,NCM575058,N,Y,35.516146,-82.486726
PAST SALE,December-31-2015,Single Family Residential,59 Southside Village Dr,Asheville,NC,28803,425000,3,3.5,Asheville,2859,47916,2005,833,149,130,Sold,,,http://www.redfin.com/NC/Asheville/59-Southside-Village-Dr-28803/home/102026977,CMLS,NCM587158,N,Y,35.4918997,-82.5093238
PAST SALE,May-21-2015,Mobile/Manufactured Home,26 Logan Ln,Fletcher,NC,28732,91870,3,2.0,Fletcher,1537,26136,1992,1057,60,,Sold,,,http://www.redfin.com/NC/Fletcher/26-Rr-1-28732/home/102038279,CMLS,NCM579374,N,Y,35.483551,-82.4644656
PAST SALE,August-3-2016,Single Family Residential,175 Chestnut Pl,Arden,NC,28704,175000,3,3.0,Arden,1452,6534,1984,617,121,,Sold,,,http://www.redfin.com/NC/Arden/175-Chestnut-Pl-28704/home/107601267,CMLS,3163106,N,Y,35.4737008,-82.505074
PAST SALE,September-16-2016,Condo/Co-op,117 Hibiscus #117,Asheville,NC,28803,290500,3,3.0,Southside Village,2069,1742,1999,573,140,195,Sold,,,http://www.redfin.com/NC/Asheville/117-Hibiscus-Ln-28803/home/108603046,NCMMLS,3209240,N,Y,35.4944845,-82.5108672
PAST SALE,May-17-2013,Single Family Residential,7 Winters Edge Ln,Asheville,NC,28803,190000,3,3.0,Asheville,1938,4356,2013,1791,98,,Sold,,,http://www.redfin.com/NC/Asheville/7-Winters-Edge-Ln-28803/home/111295436,CMLS,NCM534937,N,Y,35.5542434,-82.4773379
PAST SALE,July-28-2015,Single Family Residential,47 Gravely Branch Rd,Fletcher,NC,28732,340000,4,3.0,Fletcher,2700,34848,2006,989,126,,Sold,,,http://www.redfin.com/NC/Fletcher/47-Gravely-Branch-Rd-28732/home/102036358,CMLS,NCM578955,N,Y,35.4955877,-82.4464961
PAST SALE,September-29-2016,Single Family Residential,16 Chipping Green Dr,Arden,NC,28704,292500,4,3.0,Arden,2410,61855,1976,560,121,2,Sold,,,http://www.redfin.com/NC/Arden/16-Chipping-Green-Dr-28704/home/108559725,CMLS,3205880,N,Y,35.4830218,-82.4965445
PAST SALE,August-13-2015,Single Family Residential,7 CLEARBROOK Xing,Asheville,NC,28803,575000,4,4.5,Asheville,5391,73616,1996,973,107,,Sold,,,http://www.redfin.com/NC/Asheville/7-Clearbrook-Xing-28803/home/102034999,CMLS,NCM564829,N,Y,35.497965,-82.498037
PAST SALE,December-23-2013,Vacant Land,8 Laurel Dr #8,Arden,NC,28704,5000,,,Arden,,52272,,1571,,550,Sold,,,http://www.redfin.com/NC/Arden/8-Laurel-Rd-28704/unit-8/home/145051075,CMLS,NCM478483,N,Y,35.475474,-82.511828
PAST SALE,January-9-2015,Single Family Residential,196 White Oak Gap Rd,Asheville,NC,28803,305000,3,2.0,Asheville,2440,,2008,1189,125,,Sold,,,http://www.redfin.com/NC/Asheville/196-White-Oak-Gap-Rd-28803/home/102038642,NCMMLS,NCM560401,N,Y,35.5169814,-82.4780044
PAST SALE,October-21-2016,Condo/Co-op,117 Poppy Ln #117,Asheville,NC,28803,304500,3,3.0,Asheville,2056,2178,1999,538,148,195,Sold,,,http://www.redfin.com/NC/Asheville/117-Poppy-Ln-28803/unit-117/home/104328604,CMLS,3163489,N,Y,35.4938469,-82.5101907
PAST SALE,September-14-2016,Vacant Land,Tract A Sedgewood,Fairview,NC,28730,84000,0,,Fairview,,87120,,575,,4,Sold,,,http://www.redfin.com/NC/Fairview/Tract-A-Sedgewood-28730/home/108464527,NCMMLS,3201393,N,Y,35.52065,-82.443107
PAST SALE,August-25-2017,Single Family Residential,8 Brae Burn,Arden,NC,28704,275000,4,3.0,Brae Burn,2186,44431,1977,230,126,17,Sold,,,http://www.redfin.com/NC/Arden/8-Braeburn-Ct-28704/home/113724781,NCMMLS,3267049,N,Y,35.4825183,-82.4904186
PAST SALE,July-10-2017,Single Family Residential,95 Pinkerton Cor,Fairview,NC,28730,629000,3,4.0,Fairview,5007,182516,1983,276,126,,Sold,,,http://www.redfin.com/NC/Fairview/95-Pinkerton-Cor-28730/home/102037769,CMLS,3278354,N,Y,35.529822,-82.4633489
PAST SALE,October-10-2017,Single Family Residential,3810 Sweeten Creek Rd,Arden,NC,28704,200000,3,2.0,Arden,1440,14374,1961,184,139,,Sold,,,http://www.redfin.com/NC/Arden/3810-Sweeten-Creek-Rd-28704/home/102041419,CMLS,3315090,N,Y,35.4718931,-82.5143345
PAST SALE,June-27-2017,Single Family Residential,301 Sycamore Dr,Arden,NC,28704,230000,4,2.0,Arden,1400,10454,1960,289,164,,Sold,,,http://www.redfin.com/NC/Arden/301-Sycamore-Dr-28704/home/110850338,CMLS,3273865,N,Y,35.4734026,-82.5126009
PAST SALE,September-14-2017,Single Family Residential,147 Locust Ct,Arden,NC,28704,247000,4,3.0,Arden,2058,10454,1960,210,120,,Sold,,,http://www.redfin.com/NC/Arden/147-Locust-Ct-28704/home/110862868,CMLS,3296478,N,Y,35.4747773,-82.5059621
PAST SALE,October-13-2017,Single Family Residential,62 Avondale Rd,Asheville,NC,28803,255500,3,2.0,Asheville,2184,13503,1977,181,117,,Sold,,,http://www.redfin.com/NC/Asheville/62-Avondale-Rd-28803/home/111138457,CMLS,3304745,N,Y,35.5542995,-82.4886643
PAST SALE,September-5-2017,Single Family Residential,30 Winterview Dr,Asheville,NC,28803,400000,2,4.0,Asheville,3418,29185,2008,219,117,,Sold,,,http://www.redfin.com/NC/Asheville/30-Winterview-Dr-28803/home/111266431,CMLS,3261218,N,Y,35.544362,-82.464784
PAST SALE,April-19-2013,Single Family Residential,58 Edwards,Fairview,NC,28730,79720,3,2.0,Fairview,1848,26136,1993,1819,43,,Sold,,,http://www.redfin.com/NC/Fairview/58-Edwards-Rd-28730/home/102042948,CMLS,NCM480197,N,Y,35.536918,-82.4433729
PAST SALE,June-6-2016,Single Family Residential,16 Woodland Dr,Fairview,NC,28730,279000,3,2.0,Fairview,1828,40946,1996,675,153,,Sold,,,http://www.redfin.com/NC/Fairview/16-Woodland-Dr-28730/home/111285293,CMLS,3154998,N,Y,35.522079,-82.433282
PAST SALE,August-12-2013,Single Family Residential,36 Madelyn,Fairview,NC,28730,550000,4,5.0,Corbran Woods,4566,,2002,1704,120,350,Sold,,,http://www.redfin.com/NC/Fairview/36-Madelyn-Ln-28730/home/102047687,NCMMLS,NCM535688,N,Y,35.5208052,-82.423416
PAST SALE,February-24-2017,Mobile/Manufactured Home,20 Meadow Chase Rd,Fletcher,NC,28732,37000,2,2.0,Fletcher,1064,18295,1992,412,35,25,Sold,,,http://www.redfin.com/NC/Fletcher/20-Meadow-Chase-28732/home/111069714,CMLS,3244291,N,Y,35.485554,-82.448427
PAST SALE,June-18-2012,Single Family Residential,50 Bishop Ridge Rd,Fairview,NC,28730,175000,3,1.5,Fairview,1458,84506,1973,2124,120,,Sold,,,http://www.redfin.com/NC/Fairview/50-Bishop-Ridge-Rd-28730/home/111285174,CMLS,NCM517301,N,Y,35.530422,-82.432011
PAST SALE,March-25-2016,Single Family Residential,83 Willow Farm Rd,Fairview,NC,28730,1040000,4,3.5,Fairview,4408,33541,2006,748,236,1437,Sold,,,http://www.redfin.com/NC/Fairview/83-Willow-Farm-Rd-28730/home/102030657,CMLS,NCM592331,N,Y,35.529482,-82.4337089
PAST SALE,September-1-2016,Single Family Residential,102 Sharon Ridge Ct,Fairview,NC,27830,78000,2,2.0,Fairview,924,67082,1990,588,84,,Sold,,,http://www.redfin.com/NC/Fairview/102-Sharon-Ridge-Ct-28730/home/102026272,CMLS,NCM594806,N,Y,35.512988,-82.426445
PAST SALE,November-18-2016,Single Family Residential,102 Bridgewater Dr,Fletcher,NC,28732,575000,3,3.5,Fletcher,3798,28314,2012,510,151,92,Sold,,,http://www.redfin.com/NC/Fletcher/102-Bridgewater-Dr-28732/home/110916414,CMLS,3211667,N,Y,35.5010775,-82.4310363
PAST SALE,July-25-2012,Vacant Land,81 Bridgewater Dr,Fletcher,NC,28732,105000,,,Fletcher,,68389,,2087,,690,Sold,,,http://www.redfin.com/NC/Fletcher/81-Bridgewater-Dr-28732/home/111225265,CMLS,NCM519078,N,Y,35.500857,-82.4296279
PAST SALE,May-8-2014,Single Family Residential,1142 Charlotte Hwy,Fairview,NC,28730,107000,3,1.0,Fairview,1095,,1925,1435,98,,Sold,,,http://www.redfin.com/NC/Fairview/1142-Charlotte-Hwy-28730/home/102037926,NCMMLS,NCM553972,N,Y,35.5282926,-82.4257385
PAST SALE,June-5-2017,Single Family Residential,29 Oak,Arden,NC,28704,285000,3,2.0,Royal Heights,1788,30056,1988,311,159,13,Sold,,,http://www.redfin.com/NC/Arden/29-Oak-Ter-28704/home/113742454,NCMMLS,3272845,N,Y,35.4787058,-82.5066534
PAST SALE,September-22-2017,Single Family Residential,4 Crestview Ct,Arden,NC,28704,231000,3,2.5,Arden,1956,12632,1973,202,118,,Sold,,,http://www.redfin.com/NC/Arden/4-Crestview-Ct-28704/home/102036199,CMLS,3289014,N,Y,35.475454,-82.498256
PAST SALE,September-26-2017,Single Family Residential,7 Muirfield Cir,Arden,NC,28704,325000,3,2.5,Arden,1711,21780,1997,198,190,,Sold,,,http://www.redfin.com/NC/Arden/7-Muirfield-Cir-28704/home/102032375,CMLS,3308745,N,Y,35.48081,-82.502607
PAST SALE,September-29-2017,Condo/Co-op,109 Colony Dr,Arden,NC,28704,105000,2,1.5,Arden,1071,871,1973,195,98,187,Sold,,,http://www.redfin.com/NC/Arden/109-Colony-Dr-28704/home/102045074,CMLS,3305031,N,Y,35.471123,-82.513377
PAST SALE,,Single Family Residential,16 Saint Andrews Rd,Arden,NC,28704,262000,3,2.0,,1526,14810,1973,,172,,,,,http://www.redfin.com/NC/Arden/16-Saint-Andrews-Rd-28704/home/110806958,,,N,Y,35.4819811,-82.4993226
PAST SALE,August-3-2017,Single Family Residential,538 Shamrock Dr,Asheville,NC,28803,255000,3,2.5,Asheville,2540,20037,1990,252,100,,Sold,,,http://www.redfin.com/NC/Asheville/538-Shamrock-Dr-28803/home/110814624,CMLS,3259970,N,Y,35.4890956,-82.4885375
PAST SALE,,Single Family Residential,54 Bee Ridge Rd,Asheville,NC,28803,335000,3,2.0,,1858,20909,2014,,180,,,,,http://www.redfin.com/NC/Asheville/54-Bee-Ridge-Rd-28803/home/111177966,,,N,Y,35.550296,-82.4871839
PAST SALE,July-14-2017,Vacant Land,15 Stansbury #506,Asheville,NC,28803,275000,0,,Ramble Biltmore Forest,,22215,,272,,377,Sold,,,http://www.redfin.com/NC/Asheville/4-Olde-Eastwood-Village-Blvd-28803/unit-506/home/113002090,NCMMLS,3246849,N,Y,35.5521174,-82.4724411
PAST SALE,July-20-2017,Single Family Residential,1 Gardner Dr,Asheville,NC,28803,555000,3,3.0,Asheville,2928,66646,2004,266,190,,Sold,,,http://www.redfin.com/NC/Asheville/1-Gardner-Dr-28803/home/111294895,CMLS,3279360,N,Y,35.52304,-82.475509
PAST SALE,June-29-2017,Mobile/Manufactured Home,45 Old Gap Creek Rd,Fairview,NC,28730,169500,3,3.0,Fairview,1700,34412,1987,287,100,,Sold,,,http://www.redfin.com/NC/Fairview/45-Old-Gap-Creek-Rd-28730/home/110882798,CMLS,3260819,N,Y,35.5229069,-82.424594
PAST SALE,August-25-2017,Single Family Residential,8 Brae Burn Dr,Arden,NC,28704,275000,4,2.5,Arden,2186,44431,1977,230,126,17,Sold,,,http://www.redfin.com/NC/Arden/8-Brae-Burn-Dr-28704/home/110858916,CMLS,3267049,N,Y,35.485939,-82.4903719
PAST SALE,August-25-2017,Single Family Residential,29 Robinson Creek Rd,Asheville,NC,28803,550000,3,3.5,Asheville,2310,108464,2017,230,238,17,Sold,,,http://www.redfin.com/NC/Asheville/29-Robinson-Creek-Rd-28803/home/111138126,CMLS,3286335,N,Y,35.518762,-82.494906
PAST SALE,May-1-2017,Single Family Residential,327 Sycamore Dr,Arden,NC,28704,270000,2,1.0,Arden,899,15681,1950,346,300,,Sold,,,http://www.redfin.com/NC/Arden/327-Sycamore-Dr-28704/home/102040658,CMLS,3224702,N,Y,35.4738665,-82.5111632
PAST SALE,July-19-2017,Single Family Residential,475 Rose Hill Rd,Asheville,NC,28803,286900,3,2.0,Asheville,1600,39639,1974,267,179,,Sold,,,http://www.redfin.com/NC/Asheville/475-Rose-Hill-Rd-28803/home/111102499,CMLS,3275588,N,Y,35.546632,-82.480088
PAST SALE,May-11-2017,Single Family Residential,21 Glen Crest Dr,Arden,NC,28704,263500,3,2.0,Arden,1540,18295,1985,336,171,,Sold,,,http://www.redfin.com/NC/Arden/21-Glen-Crest-Dr-28704/home/111270441,CMLS,3268083,N,Y,35.475707,-82.495097
PAST SALE,June-29-2017,Single Family Residential,2 Hickory Rdg,Fletcher,NC,28732,665000,4,3.5,Fletcher,3822,140698,2004,287,174,33,Sold,,,http://www.redfin.com/NC/Fletcher/2-Hickory-Rdg-28732/home/111270238,CMLS,3246657,N,Y,35.4769689,-82.4761709
PAST SALE,March-23-2017,Single Family Residential,22 Turnberry Dr,Arden,NC,28704,229000,3,2.0,Arden,1485,19602,1977,385,154,,Sold,,,http://www.redfin.com/NC/Arden/22-Turnberry-Dr-28704/home/111158088,CMLS,3243570,N,Y,35.476669,-82.493903
PAST SALE,August-9-2017,Single Family Residential,51 Emmett Hollar Rd,Fairview,NC,28730,1325000,5,5.0,Fairview,3865,309276,1989,246,343,25,Sold,,,http://www.redfin.com/NC/Fairview/51-Emmett-Hollar-28730/home/102030786,CMLS,3254888,N,Y,35.536387,-82.4612159
PAST SALE,May-17-2017,Single Family Residential,608 Emmas Grove Rd,Fletcher,NC,28732,278150,3,2.0,Fletcher,2293,91476,1973,330,121,,Sold,,,http://www.redfin.com/NC/Fletcher/608-Emmas-Grove-Rd-28732/home/110862467,CMLS,3262832,N,Y,35.518992,-82.439655
PAST SALE,June-19-2017,Single Family Residential,5 Covewood Ct,Arden,NC,28704,520000,3,3.0,Arden,3356,34848,1987,297,155,,Sold,,,http://www.redfin.com/NC/Arden/5-Covewood-Ct-28704/home/110810266,CMLS,3272731,N,Y,35.471736,-82.495127
PAST SALE,June-13-2013,Mobile/Manufactured Home,1075 Sharon Ridge Rd,Fairview,NC,28730,120000,3,3.0,Fairview,2052,68389,2001,1764,58,,Sold,,,http://www.redfin.com/NC/Fairview/1075-Sharon-Ridge-Rd-28730/home/102050178,CMLS,NCM537967,N,Y,35.5125529,-82.42155
